{
"type": "FeatureCollection",
"name": "points",
"bbox": [ 105.6434302, 18.6398158, 105.7079587, 18.7140838 ],                                                                      
"features": [
{ "type": "Feature", "properties": { "osm_id": "369487077", "name": "Vinh", "place": "city", "other_tags": "\"capital\"=>\"4\",\"name:en\"=>\"Vinh\",\"name:ja\"=>\"ヴィン\",\"name:ko\"=>\"빈\",\"name:ru\"=>\"Винь\",\"name:th\"=>\"วิญ\",\"name:uk\"=>\"Вінь\",\"name:vi-Hani\"=>\"永\",\"name:zh\"=>\"荣市\",\"name:zh-Hans\"=>\"荣市\",\"name:zh-Hant\"=>\"榮市\",\"population\"=>\"230469\",\"wikidata\"=>\"Q33428\",\"wikipedia\"=>\"vi:Vinh\"" }, "bbox": [ 105.6840371, 18.6698528, 105.6840371, 18.6698528 ], "geometry": { "type": "Point", "coordinates": [ 105.6840371, 18.6698528 ] } },
{ "type": "Feature", "properties": { "osm_id": "442782103", "name": "Intimex", "other_tags": "\"shop\"=>\"supermarket\"" }, "bbox": [ 105.6890298, 18.6643627, 105.6890298, 18.6643627 ], "geometry": { "type": "Point", "coordinates": [ 105.6890298, 18.6643627 ] } },
{ "type": "Feature", "properties": { "osm_id": "1690292531", "other_tags": "\"railway\"=>\"level_crossing\"" }, "bbox": [ 105.6664287, 18.7078562, 105.6664287, 18.7078562 ], "geometry": { "type": "Point", "coordinates": [ 105.6664287, 18.7078562 ] } },
{ "type": "Feature", "properties": { "osm_id": "2191926022", "name": "Metro", "other_tags": "\"shop\"=>\"supermarket\"" }, "bbox": [ 105.7079587, 18.6614899, 105.7079587, 18.6614899 ], "geometry": { "type": "Point", "coordinates": [ 105.7079587, 18.6614899 ] } },
{ "type": "Feature", "properties": { "osm_id": "2192312789", "name": "Ministry of Education", "other_tags": "\"building\"=>\"yes\"" }, "bbox": [ 105.6798094, 18.6732169, 105.6798094, 18.6732169 ], "geometry": { "type": "Point", "coordinates": [ 105.6798094, 18.6732169 ] } },
{ "type": "Feature", "properties": { "osm_id": "2194037632", "other_tags": "\"amenity\"=>\"fuel\"" }, "bbox": [ 105.6996634, 18.6535854, 105.6996634, 18.6535854 ], "geometry": { "type": "Point", "coordinates": [ 105.6996634, 18.6535854 ] } },
{ "type": "Feature", "properties": { "osm_id": "2194037643", "other_tags": "\"amenity\"=>\"fuel\"" }, "bbox": [ 105.7011278, 18.6512524, 105.7011278, 18.6512524 ], "geometry": { "type": "Point", "coordinates": [ 105.7011278, 18.6512524 ] } },
{ "type": "Feature", "properties": { "osm_id": "2194052991", "other_tags": "\"amenity\"=>\"grave_yard\"" }, "bbox": [ 105.6999369, 18.6632878, 105.6999369, 18.6632878 ], "geometry": { "type": "Point", "coordinates": [ 105.6999369, 18.6632878 ] } },
{ "type": "Feature", "properties": { "osm_id": "2661549736", "other_tags": "\"crossing:barrier\"=>\"half\",\"crossing:light\"=>\"yes\",\"crossing:supervision\"=>\"no\",\"railway\"=>\"level_crossing\"" }, "bbox": [ 105.6622156, 18.6749702, 105.6622156, 18.6749702 ], "geometry": { "type": "Point", "coordinates": [ 105.6622156, 18.6749702 ] } },
{ "type": "Feature", "properties": { "osm_id": "3511550253", "other_tags": "\"crossing:barrier\"=>\"half\",\"crossing:light\"=>\"yes\",\"crossing:supervision\"=>\"no\",\"railway\"=>\"level_crossing\"" }, "bbox": [ 105.6616114, 18.6705459, 105.6616114, 18.6705459 ], "geometry": { "type": "Point", "coordinates": [ 105.6616114, 18.6705459 ] } },
{ "type": "Feature", "properties": { "osm_id": "3770216827", "other_tags": "\"tourism\"=>\"guest_house\"" }, "bbox": [ 105.699839, 18.6534778, 105.699839, 18.6534778 ], "geometry": { "type": "Point", "coordinates": [ 105.699839, 18.6534778 ] } },
{ "type": "Feature", "properties": { "osm_id": "4099110745", "name": "MaxAudio", "other_tags": "\"addr:city\"=>\"Vinh\",\"addr:housenumber\"=>\"78\",\"addr:postcode\"=>\"460000\",\"addr:province\"=>\"Nghệ An\",\"addr:street\"=>\"Nguyễn Thị Minh Khai\",\"addr:subdistrict\"=>\"hưng phúc\",\"opening_hours\"=>\"07:30-18:00\",\"operator\"=>\"MaxAudio\",\"shop\"=>\"hifi\"" }, "bbox": [ 105.6763909, 18.6767456, 105.6763909, 18.6767456 ], "geometry": { "type": "Point", "coordinates": [ 105.6763909, 18.6767456 ] } },
{ "type": "Feature", "properties": { "osm_id": "4142163390", "other_tags": "\"shop\"=>\"motorcycle_repair\"" }, "bbox": [ 105.6977671, 18.6559047, 105.6977671, 18.6559047 ], "geometry": { "type": "Point", "coordinates": [ 105.6977671, 18.6559047 ] } },
{ "type": "Feature", "properties": { "osm_id": "4204371790", "name": "Phòng vé Vinhbay" }, "bbox": [ 105.7049464, 18.6718653, 105.7049464, 18.6718653 ], "geometry": { "type": "Point", "coordinates": [ 105.7049464, 18.6718653 ] } },
{ "type": "Feature", "properties": { "osm_id": "4212534789", "name": "abc", "other_tags": "\"shop\"=>\"department_store\"" }, "bbox": [ 105.666657, 18.6763176, 105.666657, 18.6763176 ], "geometry": { "type": "Point", "coordinates": [ 105.666657, 18.6763176 ] } },
{ "type": "Feature", "properties": { "osm_id": "4242903690", "name": "Vuvuzela", "other_tags": "\"addr:housenumber\"=>\"45\",\"addr:street\"=>\"Quang Trung\",\"amenity\"=>\"bar\"" }, "bbox": [ 105.6742114, 18.6753014, 105.6742114, 18.6753014 ], "geometry": { "type": "Point", "coordinates": [ 105.6742114, 18.6753014 ] } },
{ "type": "Feature", "properties": { "osm_id": "4273006334", "other_tags": "\"crossing:barrier\"=>\"no\",\"crossing:supervision\"=>\"no\",\"railway\"=>\"level_crossing\"" }, "bbox": [ 105.6507629, 18.6398158, 105.6507629, 18.6398158 ], "geometry": { "type": "Point", "coordinates": [ 105.6507629, 18.6398158 ] } },
{ "type": "Feature", "properties": { "osm_id": "4273006414", "other_tags": "\"crossing:barrier\"=>\"yes\",\"crossing:light\"=>\"yes\",\"crossing:supervision\"=>\"no\",\"railway\"=>\"level_crossing\"" }, "bbox": [ 105.6529386, 18.6420738, 105.6529386, 18.6420738 ], "geometry": { "type": "Point", "coordinates": [ 105.6529386, 18.6420738 ] } },
{ "type": "Feature", "properties": { "osm_id": "4273006666", "other_tags": "\"crossing:barrier\"=>\"no\",\"crossing:supervision\"=>\"no\",\"railway\"=>\"level_crossing\"" }, "bbox": [ 105.6559452, 18.6451402, 105.6559452, 18.6451402 ], "geometry": { "type": "Point", "coordinates": [ 105.6559452, 18.6451402 ] } },
{ "type": "Feature", "properties": { "osm_id": "4275730629", "other_tags": "\"crossing:barrier\"=>\"half\",\"crossing:light\"=>\"yes\",\"crossing:supervision\"=>\"no\",\"railway\"=>\"level_crossing\"" }, "bbox": [ 105.6597291, 18.6559492, 105.6597291, 18.6559492 ], "geometry": { "type": "Point", "coordinates": [ 105.6597291, 18.6559492 ] } },
{ "type": "Feature", "properties": { "osm_id": "4275730972", "other_tags": "\"crossing:barrier\"=>\"half\",\"crossing:light\"=>\"yes\",\"crossing:supervision\"=>\"no\",\"railway\"=>\"level_crossing\"" }, "bbox": [ 105.6605601, 18.6624637, 105.6605601, 18.6624637 ], "geometry": { "type": "Point", "coordinates": [ 105.6605601, 18.6624637 ] } },
{ "type": "Feature", "properties": { "osm_id": "4275732850", "other_tags": "\"crossing:barrier\"=>\"half\",\"crossing:light\"=>\"yes\",\"crossing:supervision\"=>\"no\",\"railway\"=>\"level_crossing\"" }, "bbox": [ 105.6626247, 18.6783769, 105.6626247, 18.6783769 ], "geometry": { "type": "Point", "coordinates": [ 105.6626247, 18.6783769 ] } },
{ "type": "Feature", "properties": { "osm_id": "4275733069", "other_tags": "\"crossing:barrier\"=>\"half\",\"crossing:light\"=>\"yes\",\"crossing:supervision\"=>\"no\",\"railway\"=>\"level_crossing\"" }, "bbox": [ 105.6629896, 18.6812168, 105.6629896, 18.6812168 ], "geometry": { "type": "Point", "coordinates": [ 105.6629896, 18.6812168 ] } },
{ "type": "Feature", "properties": { "osm_id": "4275734239", "other_tags": "\"crossing:barrier\"=>\"half\",\"crossing:light\"=>\"yes\",\"crossing:supervision\"=>\"no\",\"railway\"=>\"level_crossing\"" }, "bbox": [ 105.6646988, 18.6944688, 105.6646988, 18.6944688 ], "geometry": { "type": "Point", "coordinates": [ 105.6646988, 18.6944688 ] } },
{ "type": "Feature", "properties": { "osm_id": "4383792889", "name": "Big C Vinh", "other_tags": "\"name:vi\"=>\"Big CVinh\",\"opening_hours\"=>\"Mo-Su 08:00-22:00\",\"shop\"=>\"supermarket\"" }, "bbox": [ 105.6747966, 18.6659743, 105.6747966, 18.6659743 ], "geometry": { "type": "Point", "coordinates": [ 105.6747966, 18.6659743 ] } },
{ "type": "Feature", "properties": { "osm_id": "4432071592", "other_tags": "\"name:en\"=>\"Gold Vinh Hotel\",\"tourism\"=>\"hotel\"" }, "bbox": [ 105.6743653, 18.6615998, 105.6743653, 18.6615998 ], "geometry": { "type": "Point", "coordinates": [ 105.6743653, 18.6615998 ] } },
{ "type": "Feature", "properties": { "osm_id": "4440513190", "name": "Pvoil", "other_tags": "\"amenity\"=>\"fuel\",\"brand\"=>\"Petrolimex\",\"brand:wikidata\"=>\"Q10831598\",\"name:en\"=>\"Petrolimex\"" }, "bbox": [ 105.7036147, 18.6495634, 105.7036147, 18.6495634 ], "geometry": { "type": "Point", "coordinates": [ 105.7036147, 18.6495634 ] } },
{ "type": "Feature", "properties": { "osm_id": "4470849990", "name": "Bún Bò Đò Trai - Bún Đen Đức Thọ", "other_tags": "\"addr:housenumber\"=>\"66B\",\"addr:postcode\"=>\"038\",\"addr:street\"=>\"Nguyễn Văn Trỗi\",\"amenity\"=>\"restaurant\",\"cuisine\"=>\"breakfast\",\"description\"=>\"Đức Thọ, \nBún Đen Hương Gạo Lứt - \nQuán Phượng, \nNước Dùng Vị Đò Trai\",\"email\"=>\"hung00phan@gmail.com\",\"internet_access\"=>\"wlan\",\"name:vi\"=>\"Bún Bò Đò Trai - Bún Đen Đức Thọ\",\"operator\"=>\"Quán Phượng\",\"phone\"=>\"0903885666\"" }, "bbox": [ 105.7000921, 18.6581706, 105.7000921, 18.6581706 ], "geometry": { "type": "Point", "coordinates": [ 105.7000921, 18.6581706 ] } },
{ "type": "Feature", "properties": { "osm_id": "4471124548", "other_tags": "\"noexit\"=>\"yes\"" }, "bbox": [ 105.6784384, 18.6689299, 105.6784384, 18.6689299 ], "geometry": { "type": "Point", "coordinates": [ 105.6784384, 18.6689299 ] } },
{ "type": "Feature", "properties": { "osm_id": "4472143213", "barrier": "gate" }, "bbox": [ 105.6888492, 18.6769574, 105.6888492, 18.6769574 ], "geometry": { "type": "Point", "coordinates": [ 105.6888492, 18.6769574 ] } },
{ "type": "Feature", "properties": { "osm_id": "4483141289", "name": "Nội thất Trường An", "other_tags": "\"addr:housenumber\"=>\"55\",\"addr:street\"=>\"Yên Dũng Thượng\",\"email\"=>\"noithattruongan.vn@gmail.com\",\"internet_access\"=>\"wlan\",\"name:vi\"=>\"Nội thất Trường An\",\"opening_hours\"=>\"Mo-Su 08:00-18:00\",\"phone\"=>\"0982122128\",\"shop\"=>\"furniture\",\"website\"=>\"https://noithattruongan.vn/\"" }, "bbox": [ 105.7000452, 18.6725278, 105.7000452, 18.6725278 ], "geometry": { "type": "Point", "coordinates": [ 105.7000452, 18.6725278 ] } },
{ "type": "Feature", "properties": { "osm_id": "4498428993", "name": "Trạm xăng 8B", "other_tags": "\"addr:housenumber\"=>\"Đương 8B\",\"addr:street\"=>\"Đường Huyện 2.2\",\"amenity\"=>\"fuel\",\"name:en\"=>\"Petrolimex\",\"opening_hours\"=>\"Mo-Su 07:00-22:00\"" }, "bbox": [ 105.6621101, 18.6517064, 105.6621101, 18.6517064 ], "geometry": { "type": "Point", "coordinates": [ 105.6621101, 18.6517064 ] } },
{ "type": "Feature", "properties": { "osm_id": "4505582391", "name": "Petrolimex", "other_tags": "\"amenity\"=>\"fuel\",\"brand\"=>\"Petrolimex\",\"brand:wikidata\"=>\"Q10831598\",\"brand:wikipedia\"=>\"en:Petrolimex\",\"name:en\"=>\"Petrolimex 2\",\"name:vi\"=>\"xăng\"" }, "bbox": [ 105.6926578, 18.6756621, 105.6926578, 18.6756621 ], "geometry": { "type": "Point", "coordinates": [ 105.6926578, 18.6756621 ] } },
{ "type": "Feature", "properties": { "osm_id": "4505585091", "name": "Trạm xăng", "other_tags": "\"addr:street\"=>\"Quốc lộ 1A\",\"amenity\"=>\"fuel\",\"name:en\"=>\"Petrolimex\"" }, "bbox": [ 105.667289, 18.6476076, 105.667289, 18.6476076 ], "geometry": { "type": "Point", "coordinates": [ 105.667289, 18.6476076 ] } },
{ "type": "Feature", "properties": { "osm_id": "4505593690", "name": "Xăng", "other_tags": "\"addr:street\"=>\"Lê Hồng Phong\",\"amenity\"=>\"fuel\",\"name:en\"=>\"Petrolimex\"" }, "bbox": [ 105.6774011, 18.6767326, 105.6774011, 18.6767326 ], "geometry": { "type": "Point", "coordinates": [ 105.6774011, 18.6767326 ] } },
{ "type": "Feature", "properties": { "osm_id": "4505602990", "name": "Xăng", "other_tags": "\"amenity\"=>\"fuel\",\"name:en\"=>\"Petrolimex\",\"name:vi\"=>\"Xăng\"" }, "bbox": [ 105.6672025, 18.6658075, 105.6672025, 18.6658075 ], "geometry": { "type": "Point", "coordinates": [ 105.6672025, 18.6658075 ] } },
{ "type": "Feature", "properties": { "osm_id": "4511353691", "name": "Xăng", "other_tags": "\"amenity\"=>\"fuel\",\"name:en\"=>\"Petrolimex\",\"name:vi\"=>\"Xăng\"" }, "bbox": [ 105.6912394, 18.6640544, 105.6912394, 18.6640544 ], "geometry": { "type": "Point", "coordinates": [ 105.6912394, 18.6640544 ] } },
{ "type": "Feature", "properties": { "osm_id": "4531486891", "name": "Sky Vape Coffee", "other_tags": "\"addr:housenumber\"=>\"16\",\"addr:street\"=>\"Đường Số 1\",\"amenity\"=>\"cafe\",\"cuisine\"=>\"coffee_shop;tea;ice_cream\",\"email\"=>\"shoponline37.vn@gmail.com\",\"internet_access\"=>\"wlan\",\"opening_hours\"=>\"24/7\",\"operator\"=>\"Nguyễn Thanh Hải\",\"phone\"=>\"0382677777\",\"website\"=>\"https://vapevinh.com/\"" }, "bbox": [ 105.6822463, 18.6629422, 105.6822463, 18.6629422 ], "geometry": { "type": "Point", "coordinates": [ 105.6822463, 18.6629422 ] } },
{ "type": "Feature", "properties": { "osm_id": "4556594989", "name": "Số 7 quang trung.phường quang trung.tp vinh", "other_tags": "\"addr:housenumber\"=>\"07\",\"addr:street\"=>\"Quang Trung\",\"internet_access\"=>\"wlan\",\"name:en\"=>\"Trananh company\",\"name:vi\"=>\"Số 7 quang trung.phường quang trung.tp vinh\",\"opening_hours\"=>\"Mo-Su 08:00-21:30\",\"operator\"=>\"nojima nhật bản\",\"phone\"=>\"1900545545\",\"shop\"=>\"supermarket\",\"website\"=>\"http://www.trananh.com.vn\"" }, "bbox": [ 105.6740172, 18.6673623, 105.6740172, 18.6673623 ], "geometry": { "type": "Point", "coordinates": [ 105.6740172, 18.6673623 ] } },
{ "type": "Feature", "properties": { "osm_id": "4563586891", "other_tags": "\"internet_access\"=>\"wlan\",\"name:de\"=>\"Lam Giang Hotel\",\"tourism\"=>\"hotel\"" }, "bbox": [ 105.6741101, 18.6739878, 105.6741101, 18.6739878 ], "geometry": { "type": "Point", "coordinates": [ 105.6741101, 18.6739878 ] } },
{ "type": "Feature", "properties": { "osm_id": "4563618489", "other_tags": "\"amenity\"=>\"cinema\",\"name:en\"=>\"Rạp 12-9 Cinema\"" }, "bbox": [ 105.6745795, 18.6720862, 105.6745795, 18.6720862 ], "geometry": { "type": "Point", "coordinates": [ 105.6745795, 18.6720862 ] } },
{ "type": "Feature", "properties": { "osm_id": "4583562541", "name": "Bến Thủy", "place": "suburb", "other_tags": "\"name:zh\"=>\"𤅶水坊\"" }, "bbox": [ 105.7036199, 18.6628456, 105.7036199, 18.6628456 ], "geometry": { "type": "Point", "coordinates": [ 105.7036199, 18.6628456 ] } },
{ "type": "Feature", "properties": { "osm_id": "4583562686", "name": "Trường Thi", "place": "suburb" }, "bbox": [ 105.6929979, 18.6689768, 105.6929979, 18.6689768 ], "geometry": { "type": "Point", "coordinates": [ 105.6929979, 18.6689768 ] } },
{ "type": "Feature", "properties": { "osm_id": "4583563190", "name": "Trung Đô", "place": "suburb", "other_tags": "\"name:zh\"=>\"中都坊\"" }, "bbox": [ 105.6913521, 18.655108, 105.6913521, 18.655108 ], "geometry": { "type": "Point", "coordinates": [ 105.6913521, 18.655108 ] } },
{ "type": "Feature", "properties": { "osm_id": "4583563593", "name": "Vinh Tân", "place": "suburb" }, "bbox": [ 105.678142, 18.6601142, 105.678142, 18.6601142 ], "geometry": { "type": "Point", "coordinates": [ 105.678142, 18.6601142 ] } },
{ "type": "Feature", "properties": { "osm_id": "4583564477", "name": "Quang Trung", "place": "suburb" }, "bbox": [ 105.6737013, 18.6719109, 105.6737013, 18.6719109 ], "geometry": { "type": "Point", "coordinates": [ 105.6737013, 18.6719109 ] } },
{ "type": "Feature", "properties": { "osm_id": "4583565060", "name": "Cửa Nam", "place": "suburb" }, "bbox": [ 105.6657177, 18.6658237, 105.6657177, 18.6658237 ], "geometry": { "type": "Point", "coordinates": [ 105.6657177, 18.6658237 ] } },
{ "type": "Feature", "properties": { "osm_id": "4583567185", "name": "Hưng Bình", "place": "suburb" }, "bbox": [ 105.6812477, 18.6764047, 105.6812477, 18.6764047 ], "geometry": { "type": "Point", "coordinates": [ 105.6812477, 18.6764047 ] } },
{ "type": "Feature", "properties": { "osm_id": "4583567186", "name": "Lê Lợi", "place": "suburb" }, "bbox": [ 105.6709105, 18.6802974, 105.6709105, 18.6802974 ], "geometry": { "type": "Point", "coordinates": [ 105.6709105, 18.6802974 ] } },
{ "type": "Feature", "properties": { "osm_id": "4583567238", "name": "Hưng Phúc", "place": "suburb" }, "bbox": [ 105.6867108, 18.6803401, 105.6867108, 18.6803401 ], "geometry": { "type": "Point", "coordinates": [ 105.6867108, 18.6803401 ] } },
{ "type": "Feature", "properties": { "osm_id": "4583567389", "name": "Hưng Dũng", "place": "suburb" }, "bbox": [ 105.6983602, 18.6806531, 105.6983602, 18.6806531 ], "geometry": { "type": "Point", "coordinates": [ 105.6983602, 18.6806531 ] } },
{ "type": "Feature", "properties": { "osm_id": "4628709194", "other_tags": "\"amenity\"=>\"fountain\"" }, "bbox": [ 105.6917686, 18.6713679, 105.6917686, 18.6713679 ], "geometry": { "type": "Point", "coordinates": [ 105.6917686, 18.6713679 ] } },
{ "type": "Feature", "properties": { "osm_id": "4628808089", "other_tags": "\"tourism\"=>\"picnic_site\"" }, "bbox": [ 105.6878259, 18.6683916, 105.6878259, 18.6683916 ], "geometry": { "type": "Point", "coordinates": [ 105.6878259, 18.6683916 ] } },
{ "type": "Feature", "properties": { "osm_id": "4628808389", "other_tags": "\"artwork_type\"=>\"statue\",\"name:en\"=>\"Ho Chi Minh\",\"name:ru\"=>\"Памятник Хошимину\",\"tourism\"=>\"artwork\"" }, "bbox": [ 105.6898996, 18.670221, 105.6898996, 18.670221 ], "geometry": { "type": "Point", "coordinates": [ 105.6898996, 18.670221 ] } },
{ "type": "Feature", "properties": { "osm_id": "4685447990", "name": "Coffee shop", "other_tags": "\"amenity\"=>\"cafe\",\"internet_access\"=>\"wlan\",\"name:vi\"=>\"Coffee shop\"" }, "bbox": [ 105.6891431, 18.663518, 105.6891431, 18.663518 ], "geometry": { "type": "Point", "coordinates": [ 105.6891431, 18.663518 ] } },
{ "type": "Feature", "properties": { "osm_id": "4685447991", "name": "Student accommodation", "other_tags": "\"name:vi\"=>\"Student accommodation\",\"tourism\"=>\"hotel\"" }, "bbox": [ 105.6902772, 18.6539938, 105.6902772, 18.6539938 ], "geometry": { "type": "Point", "coordinates": [ 105.6902772, 18.6539938 ] } },
{ "type": "Feature", "properties": { "osm_id": "4731719622", "other_tags": "\"historic\"=>\"memorial\",\"name:en\"=>\"Truong Thi Benthuy 1930-1931\"" }, "bbox": [ 105.7041052, 18.6483481, 105.7041052, 18.6483481 ], "geometry": { "type": "Point", "coordinates": [ 105.7041052, 18.6483481 ] } },
{ "type": "Feature", "properties": { "osm_id": "4737547131", "name": "Lá Dò Hotel", "other_tags": "\"internet_access\"=>\"wlan\",\"name:de\"=>\"La Do Hotel\",\"name:en\"=>\"La Do Hotel\",\"tourism\"=>\"hotel\"" }, "bbox": [ 105.6842908, 18.6813077, 105.6842908, 18.6813077 ], "geometry": { "type": "Point", "coordinates": [ 105.6842908, 18.6813077 ] } },
{ "type": "Feature", "properties": { "osm_id": "4756289721", "other_tags": "\"tourism\"=>\"hotel\"" }, "bbox": [ 105.6950466, 18.6717015, 105.6950466, 18.6717015 ], "geometry": { "type": "Point", "coordinates": [ 105.6950466, 18.6717015 ] } },
{ "type": "Feature", "properties": { "osm_id": "4796240722", "other_tags": "\"amenity\"=>\"atm\"" }, "bbox": [ 105.6686886, 18.6518577, 105.6686886, 18.6518577 ], "geometry": { "type": "Point", "coordinates": [ 105.6686886, 18.6518577 ] } },
{ "type": "Feature", "properties": { "osm_id": "4856943524", "other_tags": "\"amenity\"=>\"shelter\"" }, "bbox": [ 105.6842442, 18.6716526, 105.6842442, 18.6716526 ], "geometry": { "type": "Point", "coordinates": [ 105.6842442, 18.6716526 ] } },
{ "type": "Feature", "properties": { "osm_id": "4856943526", "name": "Trung tâm Nghiên cứu UD và đào tạo huấn luyên PCCC", "other_tags": "\"addr:housenumber\"=>\"151\",\"addr:street\"=>\"Cao Xuân Huy\",\"amenity\"=>\"fire_station\",\"name:vi\"=>\"Trung tâm Nghiên cứu UD và đào tạo huấn luyên PCCC\"" }, "bbox": [ 105.6762778, 18.6652939, 105.6762778, 18.6652939 ], "geometry": { "type": "Point", "coordinates": [ 105.6762778, 18.6652939 ] } },
{ "type": "Feature", "properties": { "osm_id": "4856944722", "name": "Trường Mần non Hoàng Thị Loan Bến Thủy, TP Vinh", "other_tags": "\"addr:housenumber\"=>\"03\",\"addr:street\"=>\"Phong Định Cảng\",\"amenity\"=>\"school\",\"name:vi\"=>\"Trường Mần non Hoàng Thị Loan Bến Thủy, TP Vinh\",\"operator\"=>\"Công ty dêt Hoàng Thị Loan\"" }, "bbox": [ 105.7008971, 18.6592005, 105.7008971, 18.6592005 ], "geometry": { "type": "Point", "coordinates": [ 105.7008971, 18.6592005 ] } },
{ "type": "Feature", "properties": { "osm_id": "4856950022", "name": "Trung tâm Ứng dụng KHCN Phòng cháy", "other_tags": "\"addr:housenumber\"=>\"151\",\"addr:street\"=>\"Cao Xuân Huy\",\"amenity\"=>\"police\",\"name:vi\"=>\"Trung tâm Ứng dụng KHCN Phòng cháy\"" }, "bbox": [ 105.6763453, 18.6652154, 105.6763453, 18.6652154 ], "geometry": { "type": "Point", "coordinates": [ 105.6763453, 18.6652154 ] } },
{ "type": "Feature", "properties": { "osm_id": "4856954821", "name": "Trung tâm UDKHCN Phòng cháy", "other_tags": "\"addr:housenumber\"=>\"151\",\"addr:street\"=>\"Cao Xuân Huy\",\"amenity\"=>\"fire_station\",\"name:vi\"=>\"Trung tâm UDKHCN Phòng cháy\"" }, "bbox": [ 105.676333, 18.6653276, 105.676333, 18.6653276 ], "geometry": { "type": "Point", "coordinates": [ 105.676333, 18.6653276 ] } },
{ "type": "Feature", "properties": { "osm_id": "4857236633", "name": "Sao Việt", "other_tags": "\"addr:housenumber\"=>\"01\",\"addr:street\"=>\"Phạm Hồng Thái\",\"name:en\"=>\"VIÊT-STERNHOTEL\",\"name:vi\"=>\"Sao Việt\",\"tourism\"=>\"hotel\"" }, "bbox": [ 105.6665943, 18.6475803, 105.6665943, 18.6475803 ], "geometry": { "type": "Point", "coordinates": [ 105.6665943, 18.6475803 ] } },
{ "type": "Feature", "properties": { "osm_id": "4858788621", "name": "Trường mẫu giáo Hoàng Thị Loan", "other_tags": "\"addr:housenumber\"=>\"03\",\"addr:street\"=>\"Phong Định Cảng\",\"amenity\"=>\"kindergarten\",\"name:en\"=>\"Hoàng Thị Loan Kidschool\",\"operator\"=>\"Công ty dệt kim Hoàng Thị Loan\"" }, "bbox": [ 105.701105, 18.6600382, 105.701105, 18.6600382 ], "geometry": { "type": "Point", "coordinates": [ 105.701105, 18.6600382 ] } },
{ "type": "Feature", "properties": { "osm_id": "4867789647", "name": "Petrolimex", "other_tags": "\"amenity\"=>\"fuel\",\"name:en\"=>\"Petrolimex\",\"name:vi\"=>\"Petrolimex\"" }, "bbox": [ 105.6937144, 18.6599111, 105.6937144, 18.6599111 ], "geometry": { "type": "Point", "coordinates": [ 105.6937144, 18.6599111 ] } },
{ "type": "Feature", "properties": { "osm_id": "4879604421", "other_tags": "\"amenity\"=>\"cafe\",\"internet_access\"=>\"wlan\",\"opening_hours\"=>\"Mo-Su 06:00-23:00\"" }, "bbox": [ 105.6785016, 18.6745205, 105.6785016, 18.6745205 ], "geometry": { "type": "Point", "coordinates": [ 105.6785016, 18.6745205 ] } },
{ "type": "Feature", "properties": { "osm_id": "4894741328", "name": "Mẫu giáo Quang Trung", "other_tags": "\"addr:street\"=>\"Hồng Bàng\",\"amenity\"=>\"kindergarten\",\"name:vi\"=>\"Quang Trung\"" }, "bbox": [ 105.6762062, 18.6703614, 105.6762062, 18.6703614 ], "geometry": { "type": "Point", "coordinates": [ 105.6762062, 18.6703614 ] } },
{ "type": "Feature", "properties": { "osm_id": "4894757922", "name": "Cửa hàng Spa thương hiệu Nhật Bản", "other_tags": "\"addr:housenumber\"=>\"68\",\"addr:street\"=>\"Hồng Bàng\",\"name:vi\"=>\"Cửa hàng Spa thương hiệu Nhật Bản\",\"shop\"=>\"department_store\"" }, "bbox": [ 105.6764815, 18.6703345, 105.6764815, 18.6703345 ], "geometry": { "type": "Point", "coordinates": [ 105.6764815, 18.6703345 ] } },
{ "type": "Feature", "properties": { "osm_id": "4915885321", "name": "Ngôi nhà Đức", "other_tags": "\"addr:housenumber\"=>\"36\",\"addr:street\"=>\"Lý Thường Kiệt\",\"name:de\"=>\"Deutsches Haus\",\"name:en\"=>\"German House\",\"name:vi\"=>\"Ngôi nhà Đức\",\"operator\"=>\"Trung Tâm Ngôi nhà Đức\",\"shop\"=>\"supermarket\"" }, "bbox": [ 105.6656763, 18.6811159, 105.6656763, 18.6811159 ], "geometry": { "type": "Point", "coordinates": [ 105.6656763, 18.6811159 ] } },
{ "type": "Feature", "properties": { "osm_id": "4923894422", "name": "We pub", "other_tags": "\"addr:housenumber\"=>\"62A\",\"addr:street\"=>\"Nguyễn Thị Minh Khai\",\"amenity\"=>\"bar\",\"name:vi\"=>\"We pub\",\"opening_hours\"=>\"Mo-Su 18:00-00:30\",\"phone\"=>\"0238 8903 999\"" }, "bbox": [ 105.6787695, 18.674162, 105.6787695, 18.674162 ], "geometry": { "type": "Point", "coordinates": [ 105.6787695, 18.674162 ] } },
{ "type": "Feature", "properties": { "osm_id": "4925611521", "name": "Ngầu Coffee & Store", "other_tags": "\"addr:housenumber\"=>\"36\",\"addr:street\"=>\"Lê Lợi\",\"amenity\"=>\"cafe\",\"name:vi\"=>\"Ngầu Coffee & Store\"" }, "bbox": [ 105.6746863, 18.6814369, 105.6746863, 18.6814369 ], "geometry": { "type": "Point", "coordinates": [ 105.6746863, 18.6814369 ] } },
{ "type": "Feature", "properties": { "osm_id": "5030514621", "name": "Văn Đô", "other_tags": "\"addr:housenumber\"=>\"24\",\"addr:street\"=>\"Lê Lợi\",\"name:en\"=>\"Bridgestone Tyres - Văn Đô\",\"shop\"=>\"tyres\"" }, "bbox": [ 105.6746514, 18.6808104, 105.6746514, 18.6808104 ], "geometry": { "type": "Point", "coordinates": [ 105.6746514, 18.6808104 ] } },
{ "type": "Feature", "properties": { "osm_id": "5030514622", "name": "Đình Cẩm", "other_tags": "\"addr:housenumber\"=>\"315\",\"addr:street\"=>\"Lê Duẩn\",\"name:vi\"=>\"Đình Cẩm\",\"shop\"=>\"tyres\"" }, "bbox": [ 105.6906134, 18.6638678, 105.6906134, 18.6638678 ], "geometry": { "type": "Point", "coordinates": [ 105.6906134, 18.6638678 ] } },
{ "type": "Feature", "properties": { "osm_id": "5209384821", "other_tags": "\"amenity\"=>\"restaurant\"" }, "bbox": [ 105.686699, 18.6712759, 105.686699, 18.6712759 ], "geometry": { "type": "Point", "coordinates": [ 105.686699, 18.6712759 ] } },
{ "type": "Feature", "properties": { "osm_id": "5225750421", "name": "Công Ty Cổ Phần Viễn Thông FPT - Chi Nhánh Nghệ An38", "other_tags": "\"addr:housenumber\"=>\"38\",\"addr:street\"=>\"Xô Viết Nghệ Tĩnh\",\"email\"=>\"dunghoang250589@gmail.com\",\"office\"=>\"company\",\"opening_hours\"=>\"Mo-Su 07:30-18:00\",\"phone\"=>\"0988082345\",\"website\"=>\"http://www.fptnghean24h.com\"" }, "bbox": [ 105.6936401, 18.6814803, 105.6936401, 18.6814803 ], "geometry": { "type": "Point", "coordinates": [ 105.6936401, 18.6814803 ] } },
{ "type": "Feature", "properties": { "osm_id": "5250369821", "name": "Hoa Binh 2", "other_tags": "\"addr:housenumber\"=>\"2\",\"addr:street\"=>\"Ngo 25 Duong Ngo Duc Ke\",\"internet_access\"=>\"wlan\",\"phone\"=>\"02383582461\",\"tourism\"=>\"guest_house\"" }, "bbox": [ 105.6869502, 18.6640971, 105.6869502, 18.6640971 ], "geometry": { "type": "Point", "coordinates": [ 105.6869502, 18.6640971 ] } },
{ "type": "Feature", "properties": { "osm_id": "5328620221", "other_tags": "\"name:en\"=>\"Old Citadel Wall\",\"tourism\"=>\"attraction\"" }, "bbox": [ 105.6696434, 18.6727498, 105.6696434, 18.6727498 ], "geometry": { "type": "Point", "coordinates": [ 105.6696434, 18.6727498 ] } },
{ "type": "Feature", "properties": { "osm_id": "5328620321", "other_tags": "\"name:en\"=>\"Old Citadel Wall\",\"tourism\"=>\"attraction\"" }, "bbox": [ 105.6683208, 18.6672362, 105.6683208, 18.6672362 ], "geometry": { "type": "Point", "coordinates": [ 105.6683208, 18.6672362 ] } },
{ "type": "Feature", "properties": { "osm_id": "5328620322", "other_tags": "\"name:en\"=>\"Old Citadel Wall\",\"tourism\"=>\"attraction\"" }, "bbox": [ 105.6700678, 18.6671534, 105.6700678, 18.6671534 ], "geometry": { "type": "Point", "coordinates": [ 105.6700678, 18.6671534 ] } },
{ "type": "Feature", "properties": { "osm_id": "5328620323", "other_tags": "\"name:en\"=>\"Old Citadel Wall\",\"tourism\"=>\"attraction\"" }, "bbox": [ 105.6723588, 18.669996, 105.6723588, 18.669996 ], "geometry": { "type": "Point", "coordinates": [ 105.6723588, 18.669996 ] } },
{ "type": "Feature", "properties": { "osm_id": "5328620421", "other_tags": "\"name:en\"=>\"Old Citadel Wall\",\"tourism\"=>\"attraction\"" }, "bbox": [ 105.6657603, 18.670532, 105.6657603, 18.670532 ], "geometry": { "type": "Point", "coordinates": [ 105.6657603, 18.670532 ] } },
{ "type": "Feature", "properties": { "osm_id": "5343995821", "name": "Big C - Shopping Mall and Foodcourd", "other_tags": "\"opening_hours\"=>\"Mo-Su 08:00-22:00\",\"shop\"=>\"supermarket\"" }, "bbox": [ 105.6748756, 18.6663264, 105.6748756, 18.6663264 ], "geometry": { "type": "Point", "coordinates": [ 105.6748756, 18.6663264 ] } },
{ "type": "Feature", "properties": { "osm_id": "5343995822", "other_tags": "\"amenity\"=>\"atm\",\"operator\"=>\"VPBank\"" }, "bbox": [ 105.6743936, 18.6741027, 105.6743936, 18.6741027 ], "geometry": { "type": "Point", "coordinates": [ 105.6743936, 18.6741027 ] } },
{ "type": "Feature", "properties": { "osm_id": "5343995921", "name": "KFC", "other_tags": "\"alt_name\"=>\"Kentucky Fried Chicken\",\"amenity\"=>\"fast_food\",\"brand\"=>\"KFC\",\"brand:wikidata\"=>\"Q524757\",\"brand:wikipedia\"=>\"en:KFC\",\"cuisine\"=>\"chicken\",\"takeaway\"=>\"yes\"" }, "bbox": [ 105.6744647, 18.6665185, 105.6744647, 18.6665185 ], "geometry": { "type": "Point", "coordinates": [ 105.6744647, 18.6665185 ] } },
{ "type": "Feature", "properties": { "osm_id": "5344383222", "other_tags": "\"amenity\"=>\"cafe\"" }, "bbox": [ 105.6839247, 18.6694627, 105.6839247, 18.6694627 ], "geometry": { "type": "Point", "coordinates": [ 105.6839247, 18.6694627 ] } },
{ "type": "Feature", "properties": { "osm_id": "5344383223", "name": "PVcomBank", "other_tags": "\"amenity\"=>\"bank\"" }, "bbox": [ 105.6739269, 18.6669571, 105.6739269, 18.6669571 ], "geometry": { "type": "Point", "coordinates": [ 105.6739269, 18.6669571 ] } },
{ "type": "Feature", "properties": { "osm_id": "5344383224", "name": "Trananh", "other_tags": "\"shop\"=>\"electronics\"" }, "bbox": [ 105.6739721, 18.6671809, 105.6739721, 18.6671809 ], "geometry": { "type": "Point", "coordinates": [ 105.6739721, 18.6671809 ] } },
{ "type": "Feature", "properties": { "osm_id": "5344389422", "name": "K Market", "other_tags": "\"opening_hours\"=>\"24/7\",\"shop\"=>\"supermarket\"" }, "bbox": [ 105.6789557, 18.6741529, 105.6789557, 18.6741529 ], "geometry": { "type": "Point", "coordinates": [ 105.6789557, 18.6741529 ] } },
{ "type": "Feature", "properties": { "osm_id": "5344389423", "name": "VietinBank", "other_tags": "\"amenity\"=>\"bank\",\"brand\"=>\"VietinBank\",\"brand:wikidata\"=>\"Q7928459\",\"brand:wikipedia\"=>\"en:Vietinbank\"" }, "bbox": [ 105.6782241, 18.6655143, 105.6782241, 18.6655143 ], "geometry": { "type": "Point", "coordinates": [ 105.6782241, 18.6655143 ] } },
{ "type": "Feature", "properties": { "osm_id": "5344389424", "name": "Sura BBQ", "other_tags": "\"amenity\"=>\"restaurant\"" }, "bbox": [ 105.6763162, 18.6659471, 105.6763162, 18.6659471 ], "geometry": { "type": "Point", "coordinates": [ 105.6763162, 18.6659471 ] } },
{ "type": "Feature", "properties": { "osm_id": "5344389425", "name": "Highlands Coffee", "other_tags": "\"amenity\"=>\"cafe\",\"brand\"=>\"Highlands Coffee\",\"brand:wikidata\"=>\"Q5759361\",\"brand:wikipedia\"=>\"vi:Highlands Coffee\",\"cuisine\"=>\"coffee_shop;vietnamese\",\"name:en\"=>\"Highlands Coffee\",\"takeaway\"=>\"yes\"" }, "bbox": [ 105.6742315, 18.6659317, 105.6742315, 18.6659317 ], "geometry": { "type": "Point", "coordinates": [ 105.6742315, 18.6659317 ] } },
{ "type": "Feature", "properties": { "osm_id": "5344389426", "other_tags": "\"shop\"=>\"jewelry\"" }, "bbox": [ 105.6746009, 18.6661581, 105.6746009, 18.6661581 ], "geometry": { "type": "Point", "coordinates": [ 105.6746009, 18.6661581 ] } },
{ "type": "Feature", "properties": { "osm_id": "5344389427", "name": "The Pizza Company", "other_tags": "\"alt_name\"=>\"Pizza Company\",\"amenity\"=>\"fast_food\",\"brand\"=>\"The Pizza Company\",\"brand:wikidata\"=>\"Q2413520\",\"brand:wikipedia\"=>\"en:The Pizza Company\",\"cuisine\"=>\"pizza\",\"takeaway\"=>\"yes\"" }, "bbox": [ 105.6739832, 18.6689899, 105.6739832, 18.6689899 ], "geometry": { "type": "Point", "coordinates": [ 105.6739832, 18.6689899 ] } },
{ "type": "Feature", "properties": { "osm_id": "5344389521", "name": "Levi's", "other_tags": "\"shop\"=>\"supermarket\"" }, "bbox": [ 105.6804537, 18.6730292, 105.6804537, 18.6730292 ], "geometry": { "type": "Point", "coordinates": [ 105.6804537, 18.6730292 ] } },
{ "type": "Feature", "properties": { "osm_id": "5344389621", "other_tags": "\"amenity\"=>\"atm\",\"operator\"=>\"SeA Bank\"" }, "bbox": [ 105.6811835, 18.6724001, 105.6811835, 18.6724001 ], "geometry": { "type": "Point", "coordinates": [ 105.6811835, 18.6724001 ] } },
{ "type": "Feature", "properties": { "osm_id": "5344389622", "other_tags": "\"amenity\"=>\"restaurant\"" }, "bbox": [ 105.6818971, 18.6715861, 105.6818971, 18.6715861 ], "geometry": { "type": "Point", "coordinates": [ 105.6818971, 18.6715861 ] } },
{ "type": "Feature", "properties": { "osm_id": "5344389623", "other_tags": "\"amenity\"=>\"atm\",\"operator\"=>\"Vietcom Bank\"" }, "bbox": [ 105.6837016, 18.6699113, 105.6837016, 18.6699113 ], "geometry": { "type": "Point", "coordinates": [ 105.6837016, 18.6699113 ] } },
{ "type": "Feature", "properties": { "osm_id": "5344389624", "other_tags": "\"shop\"=>\"sports\"" }, "bbox": [ 105.6744121, 18.6660833, 105.6744121, 18.6660833 ], "geometry": { "type": "Point", "coordinates": [ 105.6744121, 18.6660833 ] } },
{ "type": "Feature", "properties": { "osm_id": "5344389721", "name": "Nike Outlet", "other_tags": "\"shop\"=>\"supermarket\"" }, "bbox": [ 105.6823062, 18.6714819, 105.6823062, 18.6714819 ], "geometry": { "type": "Point", "coordinates": [ 105.6823062, 18.6714819 ] } },
{ "type": "Feature", "properties": { "osm_id": "5344389821", "name": "Cannabis Coffee", "other_tags": "\"amenity\"=>\"cafe\"" }, "bbox": [ 105.6827269, 18.6708996, 105.6827269, 18.6708996 ], "geometry": { "type": "Point", "coordinates": [ 105.6827269, 18.6708996 ] } },
{ "type": "Feature", "properties": { "osm_id": "5344389822", "other_tags": "\"amenity\"=>\"atm\",\"operator\"=>\"Techcom Bank\"" }, "bbox": [ 105.6835321, 18.6683768, 105.6835321, 18.6683768 ], "geometry": { "type": "Point", "coordinates": [ 105.6835321, 18.6683768 ] } },
{ "type": "Feature", "properties": { "osm_id": "5344389823", "other_tags": "\"leisure\"=>\"fitness_centre\"" }, "bbox": [ 105.6769597, 18.6765156, 105.6769597, 18.6765156 ], "geometry": { "type": "Point", "coordinates": [ 105.6769597, 18.6765156 ] } },
{ "type": "Feature", "properties": { "osm_id": "5344389921", "other_tags": "\"amenity\"=>\"atm\",\"operator\"=>\"BDIV\"" }, "bbox": [ 105.6837113, 18.6698009, 105.6837113, 18.6698009 ], "geometry": { "type": "Point", "coordinates": [ 105.6837113, 18.6698009 ] } },
{ "type": "Feature", "properties": { "osm_id": "5344389922", "other_tags": "\"shop\"=>\"shoes\"" }, "bbox": [ 105.6746883, 18.6665514, 105.6746883, 18.6665514 ], "geometry": { "type": "Point", "coordinates": [ 105.6746883, 18.6665514 ] } },
{ "type": "Feature", "properties": { "osm_id": "5344390421", "other_tags": "\"amenity\"=>\"atm\",\"operator\"=>\"VPBank\"" }, "bbox": [ 105.6750436, 18.6662947, 105.6750436, 18.6662947 ], "geometry": { "type": "Point", "coordinates": [ 105.6750436, 18.6662947 ] } },
{ "type": "Feature", "properties": { "osm_id": "5344390621", "other_tags": "\"amenity\"=>\"toilets\"" }, "bbox": [ 105.6749523, 18.6661788, 105.6749523, 18.6661788 ], "geometry": { "type": "Point", "coordinates": [ 105.6749523, 18.6661788 ] } },
{ "type": "Feature", "properties": { "osm_id": "5344483023", "name": "Ba Tan", "other_tags": "\"amenity\"=>\"restaurant\",\"cuisine\"=>\"vietnamese\"" }, "bbox": [ 105.6726623, 18.6746597, 105.6726623, 18.6746597 ], "geometry": { "type": "Point", "coordinates": [ 105.6726623, 18.6746597 ] } },
{ "type": "Feature", "properties": { "osm_id": "5344502425", "name": "Minimart", "other_tags": "\"shop\"=>\"supermarket\"" }, "bbox": [ 105.6719971, 18.6747226, 105.6719971, 18.6747226 ], "geometry": { "type": "Point", "coordinates": [ 105.6719971, 18.6747226 ] } },
{ "type": "Feature", "properties": { "osm_id": "5344502426", "other_tags": "\"amenity\"=>\"bank\"" }, "bbox": [ 105.6740382, 18.6731165, 105.6740382, 18.6731165 ], "geometry": { "type": "Point", "coordinates": [ 105.6740382, 18.6731165 ] } },
{ "type": "Feature", "properties": { "osm_id": "5344511121", "other_tags": "\"amenity\"=>\"pharmacy\"" }, "bbox": [ 105.6740777, 18.6745556, 105.6740777, 18.6745556 ], "geometry": { "type": "Point", "coordinates": [ 105.6740777, 18.6745556 ] } },
{ "type": "Feature", "properties": { "osm_id": "5344511122", "name": "Minimart - German Brands", "other_tags": "\"shop\"=>\"supermarket\"" }, "bbox": [ 105.6721319, 18.6747149, 105.6721319, 18.6747149 ], "geometry": { "type": "Point", "coordinates": [ 105.6721319, 18.6747149 ] } },
{ "type": "Feature", "properties": { "osm_id": "5344511123", "other_tags": "\"amenity\"=>\"bank\"" }, "bbox": [ 105.6739252, 18.670183, 105.6739252, 18.670183 ], "geometry": { "type": "Point", "coordinates": [ 105.6739252, 18.670183 ] } },
{ "type": "Feature", "properties": { "osm_id": "5344826725", "other_tags": "\"name:en\"=>\"Very Poor Neighborhood\",\"tourism\"=>\"attraction\"" }, "bbox": [ 105.6749475, 18.6746287, 105.6749475, 18.6746287 ], "geometry": { "type": "Point", "coordinates": [ 105.6749475, 18.6746287 ] } },
{ "type": "Feature", "properties": { "osm_id": "5344826726", "name": "Ta Mon", "other_tags": "\"name:en\"=>\"Old Citadel Wall Archway Entrance\",\"tourism\"=>\"attraction\"" }, "bbox": [ 105.6716163, 18.6714375, 105.6716163, 18.6714375 ], "geometry": { "type": "Point", "coordinates": [ 105.6716163, 18.6714375 ] } },
{ "type": "Feature", "properties": { "osm_id": "5344826827", "other_tags": "\"name:en\"=>\"General Motorbike Mechanics\",\"shop\"=>\"motorcycle\"" }, "bbox": [ 105.6742309, 18.6782336, 105.6742309, 18.6782336 ], "geometry": { "type": "Point", "coordinates": [ 105.6742309, 18.6782336 ] } },
{ "type": "Feature", "properties": { "osm_id": "5344826828", "other_tags": "\"amenity\"=>\"cafe\",\"name:en\"=>\"Citadel Coffee\"" }, "bbox": [ 105.6696367, 18.6714964, 105.6696367, 18.6714964 ], "geometry": { "type": "Point", "coordinates": [ 105.6696367, 18.6714964 ] } },
{ "type": "Feature", "properties": { "osm_id": "5344833027", "other_tags": "\"amenity\"=>\"fountain\",\"name:en\"=>\"Fountain\"" }, "bbox": [ 105.6746655, 18.6771701, 105.6746655, 18.6771701 ], "geometry": { "type": "Point", "coordinates": [ 105.6746655, 18.6771701 ] } },
{ "type": "Feature", "properties": { "osm_id": "5344833028", "other_tags": "\"addr:street\"=>\"Lê Lợi\",\"amenity\"=>\"bank\",\"name:en\"=>\"TP Bank\"" }, "bbox": [ 105.6746243, 18.6763797, 105.6746243, 18.6763797 ], "geometry": { "type": "Point", "coordinates": [ 105.6746243, 18.6763797 ] } },
{ "type": "Feature", "properties": { "osm_id": "5344833029", "other_tags": "\"amenity\"=>\"atm\",\"operator\"=>\"Sacombank\"" }, "bbox": [ 105.6740495, 18.6718903, 105.6740495, 18.6718903 ], "geometry": { "type": "Point", "coordinates": [ 105.6740495, 18.6718903 ] } },
{ "type": "Feature", "properties": { "osm_id": "5344833030", "other_tags": "\"addr:street\"=>\"Quang Trung\",\"amenity\"=>\"bank\",\"name:en\"=>\"Sacombank\"" }, "bbox": [ 105.6739836, 18.671901, 105.6739836, 18.671901 ], "geometry": { "type": "Point", "coordinates": [ 105.6739836, 18.671901 ] } },
{ "type": "Feature", "properties": { "osm_id": "5344833031", "name": "Nguyen Thi Minh Khai", "other_tags": "\"name:en\"=>\"Statue\",\"tourism\"=>\"attraction\"" }, "bbox": [ 105.6745844, 18.6715989, 105.6745844, 18.6715989 ], "geometry": { "type": "Point", "coordinates": [ 105.6745844, 18.6715989 ] } },
{ "type": "Feature", "properties": { "osm_id": "5344833032", "name": "Tien Mon", "other_tags": "\"name:en\"=>\"Old Citadel Wall Archway Entrance\",\"tourism\"=>\"attraction\"" }, "bbox": [ 105.6693082, 18.6676968, 105.6693082, 18.6676968 ], "geometry": { "type": "Point", "coordinates": [ 105.6693082, 18.6676968 ] } },
{ "type": "Feature", "properties": { "osm_id": "5344833033", "other_tags": "\"name:en\"=>\"Old Citadel Wall Archway Entrance\",\"tourism\"=>\"attraction\"" }, "bbox": [ 105.6669989, 18.671612, 105.6669989, 18.671612 ], "geometry": { "type": "Point", "coordinates": [ 105.6669989, 18.671612 ] } },
{ "type": "Feature", "properties": { "osm_id": "5344833034", "name": "Kien Cuong Bat Nhuat Vinh Quang Doi Doi", "other_tags": "\"name:en\"=>\"Independence and Freedom Monument\",\"tourism\"=>\"attraction\"" }, "bbox": [ 105.6690426, 18.6716725, 105.6690426, 18.6716725 ], "geometry": { "type": "Point", "coordinates": [ 105.6690426, 18.6716725 ] } },
{ "type": "Feature", "properties": { "osm_id": "5344833035", "name": "Bao Tang Xo Viet Nghe-Tinh", "other_tags": "\"name:en\"=>\"Museum of Ethnology\",\"tourism\"=>\"museum\"" }, "bbox": [ 105.6693812, 18.6720782, 105.6693812, 18.6720782 ], "geometry": { "type": "Point", "coordinates": [ 105.6693812, 18.6720782 ] } },
{ "type": "Feature", "properties": { "osm_id": "5344833129", "other_tags": "\"addr:street\"=>\"Quang Trung\",\"name:en\"=>\"Gold Bull Statue\",\"tourism\"=>\"attraction\"" }, "bbox": [ 105.6743583, 18.6718744, 105.6743583, 18.6718744 ], "geometry": { "type": "Point", "coordinates": [ 105.6743583, 18.6718744 ] } },
{ "type": "Feature", "properties": { "osm_id": "5344833130", "name": "Noi Quy", "other_tags": "\"addr:street\"=>\"Quang Trung\",\"name:en\"=>\"Pagoda or Temple\",\"tourism\"=>\"attraction\"" }, "bbox": [ 105.6748134, 18.6716046, 105.6748134, 18.6716046 ], "geometry": { "type": "Point", "coordinates": [ 105.6748134, 18.6716046 ] } },
{ "type": "Feature", "properties": { "osm_id": "5344842422", "other_tags": "\"amenity\"=>\"atm\",\"operator\"=>\"VP Bank\"" }, "bbox": [ 105.6745192, 18.6742705, 105.6745192, 18.6742705 ], "geometry": { "type": "Point", "coordinates": [ 105.6745192, 18.6742705 ] } },
{ "type": "Feature", "properties": { "osm_id": "5344842423", "other_tags": "\"amenity\"=>\"atm\",\"operator\"=>\"ACB\"" }, "bbox": [ 105.6741113, 18.6734305, 105.6741113, 18.6734305 ], "geometry": { "type": "Point", "coordinates": [ 105.6741113, 18.6734305 ] } },
{ "type": "Feature", "properties": { "osm_id": "5344846921", "other_tags": "\"addr:housenumber\"=>\"125\",\"addr:street\"=>\"Le Loi\",\"name:en\"=>\"Hardware Store\",\"shop\"=>\"hardware\"" }, "bbox": [ 105.6742855, 18.6812053, 105.6742855, 18.6812053 ], "geometry": { "type": "Point", "coordinates": [ 105.6742855, 18.6812053 ] } },
{ "type": "Feature", "properties": { "osm_id": "5346296123", "name": "VietBank", "other_tags": "\"amenity\"=>\"bank\"" }, "bbox": [ 105.6742953, 18.6778534, 105.6742953, 18.6778534 ], "geometry": { "type": "Point", "coordinates": [ 105.6742953, 18.6778534 ] } },
{ "type": "Feature", "properties": { "osm_id": "5346296124", "name": "truemart", "other_tags": "\"shop\"=>\"supermarket\"" }, "bbox": [ 105.6741837, 18.6760088, 105.6741837, 18.6760088 ], "geometry": { "type": "Point", "coordinates": [ 105.6741837, 18.6760088 ] } },
{ "type": "Feature", "properties": { "osm_id": "5346296226", "other_tags": "\"amenity\"=>\"cafe\"" }, "bbox": [ 105.6744223, 18.6798066, 105.6744223, 18.6798066 ], "geometry": { "type": "Point", "coordinates": [ 105.6744223, 18.6798066 ] } },
{ "type": "Feature", "properties": { "osm_id": "5346296227", "name": "Cong Phu", "other_tags": "\"amenity\"=>\"restaurant\",\"cuisine\"=>\"vietnamese\"" }, "bbox": [ 105.6742575, 18.6768479, 105.6742575, 18.6768479 ], "geometry": { "type": "Point", "coordinates": [ 105.6742575, 18.6768479 ] } },
{ "type": "Feature", "properties": { "osm_id": "5347354137", "name": "Goong Coffee", "other_tags": "\"addr:housenumber\"=>\"24\",\"addr:street\"=>\"Phan Sỹ Thục\",\"amenity\"=>\"cafe\",\"cuisine\"=>\"coffee_shop\",\"internet_access\"=>\"wlan\",\"phone\"=>\"0944178345\"" }, "bbox": [ 105.6940861, 18.6728787, 105.6940861, 18.6728787 ], "geometry": { "type": "Point", "coordinates": [ 105.6940861, 18.6728787 ] } },
{ "type": "Feature", "properties": { "osm_id": "5380688821", "name": "Espérer", "other_tags": "\"addr:housenumber\"=>\"138\",\"addr:street\"=>\"Nguyễn Văn Cừ\",\"amenity\"=>\"bar\",\"internet_access\"=>\"wlan\"" }, "bbox": [ 105.6863978, 18.6773836, 105.6863978, 18.6773836 ], "geometry": { "type": "Point", "coordinates": [ 105.6863978, 18.6773836 ] } },
{ "type": "Feature", "properties": { "osm_id": "5421630621", "name": "Thuý Toản", "other_tags": "\"addr:housenumber\"=>\"96\",\"addr:postcode\"=>\"46000\",\"addr:street\"=>\"Lê Huân\",\"name:en\"=>\"Thuy Toan\",\"opening_hours\"=>\"24/7\",\"phone\"=>\"+2383583382\",\"shop\"=>\"department_store\"" }, "bbox": [ 105.6750398, 18.6647331, 105.6750398, 18.6647331 ], "geometry": { "type": "Point", "coordinates": [ 105.6750398, 18.6647331 ] } },
{ "type": "Feature", "properties": { "osm_id": "5451549823", "name": "ESPÉRER 138 Nguyễn Văn Cừ", "other_tags": "\"addr:housenumber\"=>\"138\",\"addr:postcode\"=>\"460000\",\"addr:street\"=>\"Nguyễn Văn Cừ\",\"amenity\"=>\"bar\",\"name:en\"=>\"espérer 138 Nguyễn Văn Cừ\",\"opening_hours\"=>\"24/7\",\"phone\"=>\"0904686333\"" }, "bbox": [ 105.6866316, 18.6767544, 105.6866316, 18.6767544 ], "geometry": { "type": "Point", "coordinates": [ 105.6866316, 18.6767544 ] } },
{ "type": "Feature", "properties": { "osm_id": "5451558822", "name": "Nội thất Ngọc Hải", "other_tags": "\"addr:housenumber\"=>\"52\",\"addr:postcode\"=>\"6400\",\"addr:street\"=>\"Lý Thường Kiệt\",\"opening_hours\"=>\"24/7\",\"phone\"=>\"02383844957\",\"shop\"=>\"furniture\"" }, "bbox": [ 105.6687694, 18.6803857, 105.6687694, 18.6803857 ], "geometry": { "type": "Point", "coordinates": [ 105.6687694, 18.6803857 ] } },
{ "type": "Feature", "properties": { "osm_id": "5451558823", "name": "Khu tổ hợp vui chơi", "other_tags": "\"addr:housenumber\"=>\"1\",\"addr:street\"=>\"Lê Hồng Phong\",\"amenity\"=>\"cinema\"" }, "bbox": [ 105.6768349, 18.6764755, 105.6768349, 18.6764755 ], "geometry": { "type": "Point", "coordinates": [ 105.6768349, 18.6764755 ] } },
{ "type": "Feature", "properties": { "osm_id": "5470871928", "name": "Ngọc Minh Huế", "other_tags": "\"addr:housenumber\"=>\"94\",\"addr:street\"=>\"Kim Đồng\",\"amenity\"=>\"restaurant\",\"name:en\"=>\"Ngoc Minh Hue\"" }, "bbox": [ 105.6825658, 18.6793188, 105.6825658, 18.6793188 ], "geometry": { "type": "Point", "coordinates": [ 105.6825658, 18.6793188 ] } },
{ "type": "Feature", "properties": { "osm_id": "5470873323", "name": "Cơm Gà Tam Kì", "other_tags": "\"addr:housenumber\"=>\"3\",\"addr:street\"=>\"Kim Đồng\",\"amenity\"=>\"restaurant\",\"name:en\"=>\"Chicken Rice\"" }, "bbox": [ 105.6778305, 18.6778999, 105.6778305, 18.6778999 ], "geometry": { "type": "Point", "coordinates": [ 105.6778305, 18.6778999 ] } },
{ "type": "Feature", "properties": { "osm_id": "5470891921", "name": "Pho", "other_tags": "\"addr:housenumber\"=>\"136\",\"addr:street\"=>\"Nguyễn Thái Học\",\"amenity\"=>\"restaurant\",\"name:en\"=>\"Noodle Soup\"" }, "bbox": [ 105.6721037, 18.6763753, 105.6721037, 18.6763753 ], "geometry": { "type": "Point", "coordinates": [ 105.6721037, 18.6763753 ] } },
{ "type": "Feature", "properties": { "osm_id": "5521379422", "name": "Công Ty HTQ", "other_tags": "\"shop\"=>\"computer\"" }, "bbox": [ 105.6995774, 18.6603246, 105.6995774, 18.6603246 ], "geometry": { "type": "Point", "coordinates": [ 105.6995774, 18.6603246 ] } },
{ "type": "Feature", "properties": { "osm_id": "5558317123", "other_tags": "\"amenity\"=>\"school\",\"name:en\"=>\"The Asemlink of international language school\"" }, "bbox": [ 105.686239, 18.6797843, 105.686239, 18.6797843 ], "geometry": { "type": "Point", "coordinates": [ 105.686239, 18.6797843 ] } },
{ "type": "Feature", "properties": { "osm_id": "5558317322", "other_tags": "\"name:en\"=>\"Nhu y motel\",\"tourism\"=>\"motel\"" }, "bbox": [ 105.6749278, 18.6802327, 105.6749278, 18.6802327 ], "geometry": { "type": "Point", "coordinates": [ 105.6749278, 18.6802327 ] } },
{ "type": "Feature", "properties": { "osm_id": "5599429154", "other_tags": "\"railway\"=>\"level_crossing\"" }, "bbox": [ 105.6671219, 18.7140838, 105.6671219, 18.7140838 ], "geometry": { "type": "Point", "coordinates": [ 105.6671219, 18.7140838 ] } },
{ "type": "Feature", "properties": { "osm_id": "5608881113", "name": "PNJ", "other_tags": "\"alt_name\"=>\"PNJ Vinh\",\"brand\"=>\"PNJ\",\"brand:wikidata\"=>\"Q61129183\",\"brand:wikipedia\"=>\"vi:PNJ\",\"shop\"=>\"jewelry\",\"website\"=>\"https://www.pnj.com.vn/\"" }, "bbox": [ 105.674888, 18.673558, 105.674888, 18.673558 ], "geometry": { "type": "Point", "coordinates": [ 105.674888, 18.673558 ] } },
{ "type": "Feature", "properties": { "osm_id": "5903102385", "name": "Tokyo 2 Hotel", "other_tags": "\"internet_access\"=>\"wlan\",\"tourism\"=>\"hotel\"" }, "bbox": [ 105.6963119, 18.6752656, 105.6963119, 18.6752656 ], "geometry": { "type": "Point", "coordinates": [ 105.6963119, 18.6752656 ] } },
{ "type": "Feature", "properties": { "osm_id": "6025804965", "other_tags": "\"railway\"=>\"switch\"" }, "bbox": [ 105.6635431, 18.6853062, 105.6635431, 18.6853062 ], "geometry": { "type": "Point", "coordinates": [ 105.6635431, 18.6853062 ] } },
{ "type": "Feature", "properties": { "osm_id": "6025804966", "other_tags": "\"railway\"=>\"switch\"" }, "bbox": [ 105.6637213, 18.6861772, 105.6637213, 18.6861772 ], "geometry": { "type": "Point", "coordinates": [ 105.6637213, 18.6861772 ] } },
{ "type": "Feature", "properties": { "osm_id": "6025804980", "other_tags": "\"railway\"=>\"switch\"" }, "bbox": [ 105.6637684, 18.6864326, 105.6637684, 18.6864326 ], "geometry": { "type": "Point", "coordinates": [ 105.6637684, 18.6864326 ] } },
{ "type": "Feature", "properties": { "osm_id": "6025805208", "other_tags": "\"railway\"=>\"switch\"" }, "bbox": [ 105.664555, 18.6932979, 105.664555, 18.6932979 ], "geometry": { "type": "Point", "coordinates": [ 105.664555, 18.6932979 ] } },
{ "type": "Feature", "properties": { "osm_id": "6025867816", "other_tags": "\"railway\"=>\"switch\"" }, "bbox": [ 105.6645848, 18.6935403, 105.6645848, 18.6935403 ], "geometry": { "type": "Point", "coordinates": [ 105.6645848, 18.6935403 ] } },
{ "type": "Feature", "properties": { "osm_id": "6136123186", "other_tags": "\"name:en\"=>\"Hai Backpackers Hotel\",\"tourism\"=>\"hotel\"" }, "bbox": [ 105.6734572, 18.680129, 105.6734572, 18.680129 ], "geometry": { "type": "Point", "coordinates": [ 105.6734572, 18.680129 ] } },
{ "type": "Feature", "properties": { "osm_id": "6264455392", "highway": "bus_stop", "other_tags": "\"description:ru\"=>\"Остановка автобуса 22 до приграничного городка tay son\",\"public_transport\"=>\"platform\"" }, "bbox": [ 105.674237, 18.6757493, 105.674237, 18.6757493 ], "geometry": { "type": "Point", "coordinates": [ 105.674237, 18.6757493 ] } },
{ "type": "Feature", "properties": { "osm_id": "6302883085", "name": "Gin's pizza", "other_tags": "\"amenity\"=>\"restaurant\",\"internet_access\"=>\"wlan\"" }, "bbox": [ 105.7019807, 18.6663277, 105.7019807, 18.6663277 ], "geometry": { "type": "Point", "coordinates": [ 105.7019807, 18.6663277 ] } },
{ "type": "Feature", "properties": { "osm_id": "6388438585", "other_tags": "\"shop\"=>\"bakery\"" }, "bbox": [ 105.68629, 18.670823, 105.68629, 18.670823 ], "geometry": { "type": "Point", "coordinates": [ 105.68629, 18.670823 ] } },
{ "type": "Feature", "properties": { "osm_id": "6397734985", "name": "Số 57, Đường, Nguyễn Viết Xuân, Hưng Dũng, Thành phố Vinh, Nghệ An 460000, Vietnam", "other_tags": "\"amenity\"=>\"restaurant\",\"name:en\"=>\"vegetarian restaurant\"" }, "bbox": [ 105.7034895, 18.6719732, 105.7034895, 18.6719732 ], "geometry": { "type": "Point", "coordinates": [ 105.7034895, 18.6719732 ] } },
{ "type": "Feature", "properties": { "osm_id": "6415789185", "name": "Che me nghe", "other_tags": "\"amenity\"=>\"cafe\",\"internet_access\"=>\"wlan\",\"name:en\"=>\"cafe\"" }, "bbox": [ 105.6792644, 18.6667579, 105.6792644, 18.6667579 ], "geometry": { "type": "Point", "coordinates": [ 105.6792644, 18.6667579 ] } },
{ "type": "Feature", "properties": { "osm_id": "6416294585", "other_tags": "\"amenity\"=>\"bar\"" }, "bbox": [ 105.6766932, 18.6647433, 105.6766932, 18.6647433 ], "geometry": { "type": "Point", "coordinates": [ 105.6766932, 18.6647433 ] } },
{ "type": "Feature", "properties": { "osm_id": "6587730286", "name": "Nhà Anh Ten", "other_tags": "\"tourism\"=>\"apartment\"" }, "bbox": [ 105.7001027, 18.6694798, 105.7001027, 18.6694798 ], "geometry": { "type": "Point", "coordinates": [ 105.7001027, 18.6694798 ] } },
{ "type": "Feature", "properties": { "osm_id": "6587737785", "name": "Nhà anh Ten", "other_tags": "\"name:en\"=>\"Ten’s House\",\"tourism\"=>\"hotel\"" }, "bbox": [ 105.700205, 18.6693677, 105.700205, 18.6693677 ], "geometry": { "type": "Point", "coordinates": [ 105.700205, 18.6693677 ] } },
{ "type": "Feature", "properties": { "osm_id": "6590359885", "name": "Goong coffee", "other_tags": "\"amenity\"=>\"bar\",\"internet_access\"=>\"wlan\"" }, "bbox": [ 105.6965213, 18.6738743, 105.6965213, 18.6738743 ], "geometry": { "type": "Point", "coordinates": [ 105.6965213, 18.6738743 ] } },
{ "type": "Feature", "properties": { "osm_id": "6736266785", "name": "Đạt Thuần Chay", "other_tags": "\"addr:housenumber\"=>\"47\",\"addr:street\"=>\"Trần Hưng Đạo\",\"amenity\"=>\"restaurant\",\"diet:vegan\"=>\"yes\",\"diet:vegetarian\"=>\"only\",\"internet_access\"=>\"wlan\",\"name:en\"=>\"vegetarian buffet for 45k dong\",\"name:vi\"=>\"Đạt Thuần Chay - Nhà Hàng Buffet Chay\",\"opening_hours\"=>\"Mo-Su 11:00-13:00, 17:00-20:00\"" }, "bbox": [ 105.6644635, 18.6689129, 105.6644635, 18.6689129 ], "geometry": { "type": "Point", "coordinates": [ 105.6644635, 18.6689129 ] } },
{ "type": "Feature", "properties": { "osm_id": "6813546186", "name": "An Phước", "other_tags": "\"addr:full\"=>\"99 Lê Lợi, P. Lê Lợi, Tp. Vinh, Nghệ An, Việt Nam\",\"addr:housenumber\"=>\"99\",\"addr:street\"=>\"Lê Lợi\",\"alt_name\"=>\"An Phước Vinh 2 - Lê Lợi\",\"clothes\"=>\"suits\",\"name:en\"=>\"An Phuoc\",\"opening_hours\"=>\"7:30-21:30\",\"phone\"=>\"0238 8686 357\",\"shop\"=>\"clothes\"" }, "bbox": [ 105.6744922, 18.6813185, 105.6744922, 18.6813185 ], "geometry": { "type": "Point", "coordinates": [ 105.6744922, 18.6813185 ] } },
{ "type": "Feature", "properties": { "osm_id": "6919456040", "highway": "crossing" }, "bbox": [ 105.6904863, 18.6545128, 105.6904863, 18.6545128 ], "geometry": { "type": "Point", "coordinates": [ 105.6904863, 18.6545128 ] } },
{ "type": "Feature", "properties": { "osm_id": "6970673885", "name": "Dance sport coffee", "other_tags": "\"amenity\"=>\"cafe\"" }, "bbox": [ 105.694076, 18.6722196, 105.694076, 18.6722196 ], "geometry": { "type": "Point", "coordinates": [ 105.694076, 18.6722196 ] } },
{ "type": "Feature", "properties": { "osm_id": "7037525985", "other_tags": "\"name:en\"=>\"40 computer repair shop\",\"shop\"=>\"computer\"" }, "bbox": [ 105.6806528, 18.6728588, 105.6806528, 18.6728588 ], "geometry": { "type": "Point", "coordinates": [ 105.6806528, 18.6728588 ] } },
{ "type": "Feature", "properties": { "osm_id": "7057502086", "other_tags": "\"name:en\"=>\"Asean Hotel\",\"tourism\"=>\"hotel\"" }, "bbox": [ 105.6802721, 18.6652472, 105.6802721, 18.6652472 ], "geometry": { "type": "Point", "coordinates": [ 105.6802721, 18.6652472 ] } },
{ "type": "Feature", "properties": { "osm_id": "7057508487", "other_tags": "\"amenity\"=>\"post_box\",\"name:en\"=>\"Vietnam Post\"" }, "bbox": [ 105.6842563, 18.6701765, 105.6842563, 18.6701765 ], "geometry": { "type": "Point", "coordinates": [ 105.6842563, 18.6701765 ] } },
{ "type": "Feature", "properties": { "osm_id": "7057508488", "other_tags": "\"amenity\"=>\"atm\",\"operator\"=>\"MSB\"" }, "bbox": [ 105.6844311, 18.6701914, 105.6844311, 18.6701914 ], "geometry": { "type": "Point", "coordinates": [ 105.6844311, 18.6701914 ] } },
{ "type": "Feature", "properties": { "osm_id": "7074512385", "other_tags": "\"amenity\"=>\"fast_food\",\"internet_access\"=>\"wlan\",\"name:en\"=>\"Pizza Hut\",\"opening_hours\"=>\"Mo-Su 10:00-22:00\"" }, "bbox": [ 105.6842395, 18.6763775, 105.6842395, 18.6763775 ], "geometry": { "type": "Point", "coordinates": [ 105.6842395, 18.6763775 ] } },
{ "type": "Feature", "properties": { "osm_id": "7074515785", "other_tags": "\"amenity\"=>\"fast_food\",\"internet_access\"=>\"wlan\",\"name:en\"=>\"KFC\",\"opening_hours\"=>\"Mo-Su 10:00-21:30\"" }, "bbox": [ 105.6848996, 18.6763833, 105.6848996, 18.6763833 ], "geometry": { "type": "Point", "coordinates": [ 105.6848996, 18.6763833 ] } },
{ "type": "Feature", "properties": { "osm_id": "7074531285", "other_tags": "\"name:en\"=>\"VinMart\",\"shop\"=>\"supermarket\"" }, "bbox": [ 105.6847156, 18.6760584, 105.6847156, 18.6760584 ], "geometry": { "type": "Point", "coordinates": [ 105.6847156, 18.6760584 ] } },
{ "type": "Feature", "properties": { "osm_id": "7074560685", "other_tags": "\"internet_access\"=>\"wlan\",\"name:en\"=>\"Artisan\",\"opening_hours\"=>\"Mo-Su 06:00-22:00\",\"shop\"=>\"bakery\"" }, "bbox": [ 105.6845436, 18.6760617, 105.6845436, 18.6760617 ], "geometry": { "type": "Point", "coordinates": [ 105.6845436, 18.6760617 ] } },
{ "type": "Feature", "properties": { "osm_id": "7090562488", "other_tags": "\"amenity\"=>\"cafe\",\"name:en\"=>\"Quynh Anh tea and coffee\"" }, "bbox": [ 105.6861537, 18.6774866, 105.6861537, 18.6774866 ], "geometry": { "type": "Point", "coordinates": [ 105.6861537, 18.6774866 ] } },
{ "type": "Feature", "properties": { "osm_id": "7092628385", "other_tags": "\"name:en\"=>\"Hotel Tra Bong\",\"tourism\"=>\"hotel\"" }, "bbox": [ 105.6829662, 18.6657594, 105.6829662, 18.6657594 ], "geometry": { "type": "Point", "coordinates": [ 105.6829662, 18.6657594 ] } },
{ "type": "Feature", "properties": { "osm_id": "7093266585", "other_tags": "\"amenity\"=>\"cafe\",\"name:en\"=>\"Beer@night\"" }, "bbox": [ 105.694498, 18.6738239, 105.694498, 18.6738239 ], "geometry": { "type": "Point", "coordinates": [ 105.694498, 18.6738239 ] } },
{ "type": "Feature", "properties": { "osm_id": "7099222885", "other_tags": "\"amenity\"=>\"cafe\",\"name:en\"=>\"Cafe Acoustic\"" }, "bbox": [ 105.6988029, 18.6735603, 105.6988029, 18.6735603 ], "geometry": { "type": "Point", "coordinates": [ 105.6988029, 18.6735603 ] } },
{ "type": "Feature", "properties": { "osm_id": "7099272085", "other_tags": "\"amenity\"=>\"cafe\",\"name:en\"=>\"Cafe Hien Hue\"" }, "bbox": [ 105.6758107, 18.666691, 105.6758107, 18.666691 ], "geometry": { "type": "Point", "coordinates": [ 105.6758107, 18.666691 ] } },
{ "type": "Feature", "properties": { "osm_id": "7150341287", "name": "Cheap accomodation for backpackers", "other_tags": "\"name:pl\"=>\"Tani nocleg\",\"tourism\"=>\"hostel\"" }, "bbox": [ 105.698771, 18.6547402, 105.698771, 18.6547402 ], "geometry": { "type": "Point", "coordinates": [ 105.698771, 18.6547402 ] } },
{ "type": "Feature", "properties": { "osm_id": "7515257739", "name": "Nghệ An", "other_tags": "\"addr:city\"=>\"Vinh\",\"addr:housenumber\"=>\"180\",\"addr:postcode\"=>\"460000\",\"addr:province\"=>\"Nghệ An\",\"addr:street\"=>\"Nguyễn Du\",\"addr:subdistrict\"=>\"Bến Thủy\",\"office\"=>\"company\",\"opening_hours\"=>\"24/7\",\"website\"=>\"https://www.facebook.com/ngheanllc\"" }, "bbox": [ 105.6950847, 18.6583811, 105.6950847, 18.6583811 ], "geometry": { "type": "Point", "coordinates": [ 105.6950847, 18.6583811 ] } },
{ "type": "Feature", "properties": { "osm_id": "7579727535", "name": "ATM", "other_tags": "\"amenity\"=>\"atm\"" }, "bbox": [ 105.6832448, 18.6655326, 105.6832448, 18.6655326 ], "geometry": { "type": "Point", "coordinates": [ 105.6832448, 18.6655326 ] } },
{ "type": "Feature", "properties": { "osm_id": "7619992259", "other_tags": "\"railway\"=>\"level_crossing\"" }, "bbox": [ 105.6660458, 18.7047596, 105.6660458, 18.7047596 ], "geometry": { "type": "Point", "coordinates": [ 105.6660458, 18.7047596 ] } },
{ "type": "Feature", "properties": { "osm_id": "7619992529", "other_tags": "\"railway\"=>\"level_crossing\"" }, "bbox": [ 105.663416, 18.6843633, 105.663416, 18.6843633 ], "geometry": { "type": "Point", "coordinates": [ 105.663416, 18.6843633 ] } },
{ "type": "Feature", "properties": { "osm_id": "7619993275", "other_tags": "\"railway\"=>\"level_crossing\"" }, "bbox": [ 105.660718, 18.6633556, 105.660718, 18.6633556 ], "geometry": { "type": "Point", "coordinates": [ 105.660718, 18.6633556 ] } },
{ "type": "Feature", "properties": { "osm_id": "7619993712", "other_tags": "\"railway\"=>\"level_crossing\"" }, "bbox": [ 105.660117, 18.6588909, 105.660117, 18.6588909 ], "geometry": { "type": "Point", "coordinates": [ 105.660117, 18.6588909 ] } },
{ "type": "Feature", "properties": { "osm_id": "7619994603", "other_tags": "\"railway\"=>\"level_crossing\"" }, "bbox": [ 105.6611582, 18.6668248, 105.6611582, 18.6668248 ], "geometry": { "type": "Point", "coordinates": [ 105.6611582, 18.6668248 ] } },
{ "type": "Feature", "properties": { "osm_id": "7619994984", "other_tags": "\"railway\"=>\"level_crossing\"" }, "bbox": [ 105.6602101, 18.6596224, 105.6602101, 18.6596224 ], "geometry": { "type": "Point", "coordinates": [ 105.6602101, 18.6596224 ] } },
{ "type": "Feature", "properties": { "osm_id": "7632748706", "other_tags": "\"railway\"=>\"level_crossing\"" }, "bbox": [ 105.6656643, 18.701846, 105.6656643, 18.701846 ], "geometry": { "type": "Point", "coordinates": [ 105.6656643, 18.701846 ] } },
{ "type": "Feature", "properties": { "osm_id": "7652399585", "other_tags": "\"amenity\"=>\"shelter\"" }, "bbox": [ 105.6910573, 18.6765377, 105.6910573, 18.6765377 ], "geometry": { "type": "Point", "coordinates": [ 105.6910573, 18.6765377 ] } },
{ "type": "Feature", "properties": { "osm_id": "7860580946", "barrier": "gate", "other_tags": "\"access\"=>\"no\"" }, "bbox": [ 105.6916425, 18.6729507, 105.6916425, 18.6729507 ], "geometry": { "type": "Point", "coordinates": [ 105.6916425, 18.6729507 ] } },
{ "type": "Feature", "properties": { "osm_id": "7860670685", "other_tags": "\"noexit\"=>\"yes\"" }, "bbox": [ 105.7013846, 18.6784474, 105.7013846, 18.6784474 ], "geometry": { "type": "Point", "coordinates": [ 105.7013846, 18.6784474 ] } },
{ "type": "Feature", "properties": { "osm_id": "7860670886", "other_tags": "\"noexit\"=>\"yes\"" }, "bbox": [ 105.706616, 18.6783583, 105.706616, 18.6783583 ], "geometry": { "type": "Point", "coordinates": [ 105.706616, 18.6783583 ] } },
{ "type": "Feature", "properties": { "osm_id": "7885577128", "other_tags": "\"noexit\"=>\"yes\"" }, "bbox": [ 105.6960055, 18.6601552, 105.6960055, 18.6601552 ], "geometry": { "type": "Point", "coordinates": [ 105.6960055, 18.6601552 ] } },
{ "type": "Feature", "properties": { "osm_id": "7886541920", "barrier": "gate" }, "bbox": [ 105.6882327, 18.6762043, 105.6882327, 18.6762043 ], "geometry": { "type": "Point", "coordinates": [ 105.6882327, 18.6762043 ] } },
{ "type": "Feature", "properties": { "osm_id": "7888552051", "other_tags": "\"noexit\"=>\"yes\"" }, "bbox": [ 105.6852243, 18.6781215, 105.6852243, 18.6781215 ], "geometry": { "type": "Point", "coordinates": [ 105.6852243, 18.6781215 ] } },
{ "type": "Feature", "properties": { "osm_id": "8001898127", "barrier": "gate", "other_tags": "\"access\"=>\"permissive\"" }, "bbox": [ 105.6703927, 18.6773643, 105.6703927, 18.6773643 ], "geometry": { "type": "Point", "coordinates": [ 105.6703927, 18.6773643 ] } },
{ "type": "Feature", "properties": { "osm_id": "8059215374", "name": "apec karaoke 09 lênin", "other_tags": "\"addr:city\"=>\"vinh\",\"addr:housenumber\"=>\"09\",\"addr:province\"=>\"nghệ an\",\"addr:street\"=>\"lê Nin\",\"addr:subdistrict\"=>\"Hưng Dũng\",\"amenity\"=>\"karaoke_box\",\"opening_hours\"=>\"24/7\"" }, "bbox": [ 105.693838, 18.6798547, 105.693838, 18.6798547 ], "geometry": { "type": "Point", "coordinates": [ 105.693838, 18.6798547 ] } },
{ "type": "Feature", "properties": { "osm_id": "8123356024", "other_tags": "\"noexit\"=>\"yes\"" }, "bbox": [ 105.7024084, 18.6756403, 105.7024084, 18.6756403 ], "geometry": { "type": "Point", "coordinates": [ 105.7024084, 18.6756403 ] } },
{ "type": "Feature", "properties": { "osm_id": "8123356092", "other_tags": "\"noexit\"=>\"yes\"" }, "bbox": [ 105.7036109, 18.6723296, 105.7036109, 18.6723296 ], "geometry": { "type": "Point", "coordinates": [ 105.7036109, 18.6723296 ] } },
{ "type": "Feature", "properties": { "osm_id": "8146846217", "name": "nhà của tôi", "other_tags": "\"addr:housenumber\"=>\"24\",\"addr:street\"=>\"Đặng Tất\",\"email\"=>\"vanminh.tieu@gmail.com\",\"internet_access\"=>\"wlan\",\"name:en\"=>\"my home\",\"phone\"=>\"0946535969\",\"tourism\"=>\"apartment\"" }, "bbox": [ 105.6801808, 18.6688402, 105.6801808, 18.6688402 ], "geometry": { "type": "Point", "coordinates": [ 105.6801808, 18.6688402 ] } },
{ "type": "Feature", "properties": { "osm_id": "8149738805", "other_tags": "\"power\"=>\"tower\"" }, "bbox": [ 105.6532559, 18.6913029, 105.6532559, 18.6913029 ], "geometry": { "type": "Point", "coordinates": [ 105.6532559, 18.6913029 ] } },
{ "type": "Feature", "properties": { "osm_id": "8601190866", "highway": "crossing", "other_tags": "\"crossing\"=>\"unmarked\"" }, "bbox": [ 105.661118, 18.6522733, 105.661118, 18.6522733 ], "geometry": { "type": "Point", "coordinates": [ 105.661118, 18.6522733 ] } },
{ "type": "Feature", "properties": { "osm_id": "8601190874", "highway": "crossing", "other_tags": "\"crossing\"=>\"unmarked\"" }, "bbox": [ 105.6616652, 18.6531983, 105.6616652, 18.6531983 ], "geometry": { "type": "Point", "coordinates": [ 105.6616652, 18.6531983 ] } },
{ "type": "Feature", "properties": { "osm_id": "8658192606", "barrier": "gate", "other_tags": "\"access\"=>\"no\"" }, "bbox": [ 105.6736975, 18.66068, 105.6736975, 18.66068 ], "geometry": { "type": "Point", "coordinates": [ 105.6736975, 18.66068 ] } },
{ "type": "Feature", "properties": { "osm_id": "8658286736", "other_tags": "\"noexit\"=>\"yes\"" }, "bbox": [ 105.6773174, 18.6757911, 105.6773174, 18.6757911 ], "geometry": { "type": "Point", "coordinates": [ 105.6773174, 18.6757911 ] } },
{ "type": "Feature", "properties": { "osm_id": "8841308722", "other_tags": "\"noexit\"=>\"yes\"" }, "bbox": [ 105.7012995, 18.6784146, 105.7012995, 18.6784146 ], "geometry": { "type": "Point", "coordinates": [ 105.7012995, 18.6784146 ] } },
{ "type": "Feature", "properties": { "osm_id": "8841572787", "other_tags": "\"noexit\"=>\"yes\"" }, "bbox": [ 105.6756449, 18.6795472, 105.6756449, 18.6795472 ], "geometry": { "type": "Point", "coordinates": [ 105.6756449, 18.6795472 ] } },
{ "type": "Feature", "properties": { "osm_id": "8841991528", "other_tags": "\"noexit\"=>\"yes\"" }, "bbox": [ 105.7026695, 18.6810444, 105.7026695, 18.6810444 ], "geometry": { "type": "Point", "coordinates": [ 105.7026695, 18.6810444 ] } },
{ "type": "Feature", "properties": { "osm_id": "8923001432", "other_tags": "\"noexit\"=>\"yes\"" }, "bbox": [ 105.6795421, 18.6531602, 105.6795421, 18.6531602 ], "geometry": { "type": "Point", "coordinates": [ 105.6795421, 18.6531602 ] } },
{ "type": "Feature", "properties": { "osm_id": "8923001436", "other_tags": "\"noexit\"=>\"yes\"" }, "bbox": [ 105.6796628, 18.6530891, 105.6796628, 18.6530891 ], "geometry": { "type": "Point", "coordinates": [ 105.6796628, 18.6530891 ] } },
{ "type": "Feature", "properties": { "osm_id": "9014407805", "barrier": "gate" }, "bbox": [ 105.69354, 18.6743761, 105.69354, 18.6743761 ], "geometry": { "type": "Point", "coordinates": [ 105.69354, 18.6743761 ] } },
{ "type": "Feature", "properties": { "osm_id": "9014407815", "barrier": "gate", "other_tags": "\"access\"=>\"no\"" }, "bbox": [ 105.6927207, 18.6725987, 105.6927207, 18.6725987 ], "geometry": { "type": "Point", "coordinates": [ 105.6927207, 18.6725987 ] } },
{ "type": "Feature", "properties": { "osm_id": "9016144657", "barrier": "gate" }, "bbox": [ 105.6827767, 18.6763936, 105.6827767, 18.6763936 ], "geometry": { "type": "Point", "coordinates": [ 105.6827767, 18.6763936 ] } },
{ "type": "Feature", "properties": { "osm_id": "9157311888", "name": "Thanh Võ Auto", "other_tags": "\"addr:city\"=>\"vinh\",\"addr:housenumber\"=>\"18\",\"addr:province\"=>\"Nghệ An\",\"addr:street\"=>\"Ngõ 223 Trần Hưng Đạo\",\"addr:subdistrict\"=>\"Đội Cung\",\"opening_hours\"=>\"24/7\",\"phone\"=>\"0989454101\",\"second_hand\"=>\"only\",\"shop\"=>\"car\",\"website\"=>\"https://thanhvoauto.com/\"" }, "bbox": [ 105.6628328, 18.675884, 105.6628328, 18.675884 ], "geometry": { "type": "Point", "coordinates": [ 105.6628328, 18.675884 ] } },
{ "type": "Feature", "properties": { "osm_id": "9401725185", "name": "Bảo tàng Quân khu 4", "other_tags": "\"tourism\"=>\"museum\"" }, "bbox": [ 105.694656, 18.6579621, 105.694656, 18.6579621 ], "geometry": { "type": "Point", "coordinates": [ 105.694656, 18.6579621 ] } },
{ "type": "Feature", "properties": { "osm_id": "10177842317", "name": "Sai gon Kim Lien", "other_tags": "\"name:en\"=>\"Saigon Kimlien Hotel\",\"name:ru\"=>\"Гостиница Saigon Kimlien\",\"tourism\"=>\"hotel\"" }, "bbox": [ 105.6739416, 18.6709665, 105.6739416, 18.6709665 ], "geometry": { "type": "Point", "coordinates": [ 105.6739416, 18.6709665 ] } },
{ "type": "Feature", "properties": { "osm_id": "10198878791", "barrier": "toll_booth" }, "bbox": [ 105.7046345, 18.6486748, 105.7046345, 18.6486748 ], "geometry": { "type": "Point", "coordinates": [ 105.7046345, 18.6486748 ] } },
{ "type": "Feature", "properties": { "osm_id": "10198878792", "barrier": "toll_booth" }, "bbox": [ 105.7045709, 18.6485999, 105.7045709, 18.6485999 ], "geometry": { "type": "Point", "coordinates": [ 105.7045709, 18.6485999 ] } },
{ "type": "Feature", "properties": { "osm_id": "10300054010", "name": "Mường Thanh Luxury Song Lam Hotel", "other_tags": "\"name:ru\"=>\"Гостиница Mường Thanh Luxury Song Lam Hotel\",\"tourism\"=>\"hotel\"" }, "bbox": [ 105.6737567, 18.6680204, 105.6737567, 18.6680204 ], "geometry": { "type": "Point", "coordinates": [ 105.6737567, 18.6680204 ] } },
{ "type": "Feature", "properties": { "osm_id": "10591979633", "other_tags": "\"railway\"=>\"milestone\",\"railway:position\"=>\"319\"" }, "bbox": [ 105.6639605, 18.6878243, 105.6639605, 18.6878243 ], "geometry": { "type": "Point", "coordinates": [ 105.6639605, 18.6878243 ] } },
{ "type": "Feature", "properties": { "osm_id": "11510709301", "other_tags": "\"noexit\"=>\"yes\"" }, "bbox": [ 105.6816906, 18.6790557, 105.6816906, 18.6790557 ], "geometry": { "type": "Point", "coordinates": [ 105.6816906, 18.6790557 ] } },
{ "type": "Feature", "properties": { "osm_id": "11773859431", "other_tags": "\"power\"=>\"portal\"" }, "bbox": [ 105.7021947, 18.6486557, 105.7021947, 18.6486557 ], "geometry": { "type": "Point", "coordinates": [ 105.7021947, 18.6486557 ] } },
{ "type": "Feature", "properties": { "osm_id": "11773859432", "other_tags": "\"power\"=>\"portal\"" }, "bbox": [ 105.7020834, 18.6485362, 105.7020834, 18.6485362 ], "geometry": { "type": "Point", "coordinates": [ 105.7020834, 18.6485362 ] } },
{ "type": "Feature", "properties": { "osm_id": "11773859433", "other_tags": "\"design\"=>\"three-level\",\"power\"=>\"tower\"" }, "bbox": [ 105.7023154, 18.6481347, 105.7023154, 18.6481347 ], "geometry": { "type": "Point", "coordinates": [ 105.7023154, 18.6481347 ] } },
{ "type": "Feature", "properties": { "osm_id": "11773859434", "other_tags": "\"design\"=>\"three-level\",\"power\"=>\"tower\"" }, "bbox": [ 105.7009274, 18.6468201, 105.7009274, 18.6468201 ], "geometry": { "type": "Point", "coordinates": [ 105.7009274, 18.6468201 ] } },
{ "type": "Feature", "properties": { "osm_id": "11773859435", "other_tags": "\"design\"=>\"three-level\",\"power\"=>\"tower\"" }, "bbox": [ 105.6990042, 18.6446224, 105.6990042, 18.6446224 ], "geometry": { "type": "Point", "coordinates": [ 105.6990042, 18.6446224 ] } },
{ "type": "Feature", "properties": { "osm_id": "11773859468", "other_tags": "\"design\"=>\"three-level\",\"power\"=>\"tower\"" }, "bbox": [ 105.683258, 18.6457718, 105.683258, 18.6457718 ], "geometry": { "type": "Point", "coordinates": [ 105.683258, 18.6457718 ] } },
{ "type": "Feature", "properties": { "osm_id": "11773859469", "other_tags": "\"design\"=>\"three-level\",\"power\"=>\"tower\"" }, "bbox": [ 105.6958821, 18.6443975, 105.6958821, 18.6443975 ], "geometry": { "type": "Point", "coordinates": [ 105.6958821, 18.6443975 ] } },
{ "type": "Feature", "properties": { "osm_id": "11773859470", "other_tags": "\"design\"=>\"three-level\",\"power\"=>\"tower\"" }, "bbox": [ 105.6939778, 18.6443264, 105.6939778, 18.6443264 ], "geometry": { "type": "Point", "coordinates": [ 105.6939778, 18.6443264 ] } },
{ "type": "Feature", "properties": { "osm_id": "11773859471", "other_tags": "\"design\"=>\"three-level\",\"power\"=>\"tower\"" }, "bbox": [ 105.6920077, 18.6442476, 105.6920077, 18.6442476 ], "geometry": { "type": "Point", "coordinates": [ 105.6920077, 18.6442476 ] } },
{ "type": "Feature", "properties": { "osm_id": "11773859472", "other_tags": "\"design\"=>\"three-level\",\"power\"=>\"tower\"" }, "bbox": [ 105.6905861, 18.6441885, 105.6905861, 18.6441885 ], "geometry": { "type": "Point", "coordinates": [ 105.6905861, 18.6441885 ] } },
{ "type": "Feature", "properties": { "osm_id": "11773859473", "other_tags": "\"design\"=>\"three-level\",\"power\"=>\"tower\"" }, "bbox": [ 105.6882781, 18.6440875, 105.6882781, 18.6440875 ], "geometry": { "type": "Point", "coordinates": [ 105.6882781, 18.6440875 ] } },
{ "type": "Feature", "properties": { "osm_id": "11773859474", "other_tags": "\"design\"=>\"three-level\",\"power\"=>\"tower\"" }, "bbox": [ 105.6870335, 18.6445004, 105.6870335, 18.6445004 ], "geometry": { "type": "Point", "coordinates": [ 105.6870335, 18.6445004 ] } },
{ "type": "Feature", "properties": { "osm_id": "11773859475", "other_tags": "\"design\"=>\"three-level\",\"power\"=>\"tower\"" }, "bbox": [ 105.6857353, 18.6449363, 105.6857353, 18.6449363 ], "geometry": { "type": "Point", "coordinates": [ 105.6857353, 18.6449363 ] } },
{ "type": "Feature", "properties": { "osm_id": "11773859476", "other_tags": "\"design\"=>\"three-level\",\"power\"=>\"tower\"" }, "bbox": [ 105.6820205, 18.6461892, 105.6820205, 18.6461892 ], "geometry": { "type": "Point", "coordinates": [ 105.6820205, 18.6461892 ] } },
{ "type": "Feature", "properties": { "osm_id": "11773859477", "other_tags": "\"design\"=>\"three-level\",\"power\"=>\"tower\"" }, "bbox": [ 105.6799342, 18.6468694, 105.6799342, 18.6468694 ], "geometry": { "type": "Point", "coordinates": [ 105.6799342, 18.6468694 ] } },
{ "type": "Feature", "properties": { "osm_id": "11773859478", "other_tags": "\"design\"=>\"three-level\",\"power\"=>\"tower\"" }, "bbox": [ 105.6781939, 18.6482179, 105.6781939, 18.6482179 ], "geometry": { "type": "Point", "coordinates": [ 105.6781939, 18.6482179 ] } },
{ "type": "Feature", "properties": { "osm_id": "11773859479", "other_tags": "\"design\"=>\"three-level\",\"power\"=>\"tower\"" }, "bbox": [ 105.6730142, 18.649232, 105.6730142, 18.649232 ], "geometry": { "type": "Point", "coordinates": [ 105.6730142, 18.649232 ] } },
{ "type": "Feature", "properties": { "osm_id": "11773859480", "other_tags": "\"design\"=>\"three-level\",\"power\"=>\"tower\"" }, "bbox": [ 105.6723625, 18.6493405, 105.6723625, 18.6493405 ], "geometry": { "type": "Point", "coordinates": [ 105.6723625, 18.6493405 ] } },
{ "type": "Feature", "properties": { "osm_id": "11773859481", "other_tags": "\"design\"=>\"three-level\",\"power\"=>\"tower\"" }, "bbox": [ 105.6706184, 18.649892, 105.6706184, 18.649892 ], "geometry": { "type": "Point", "coordinates": [ 105.6706184, 18.649892 ] } },
{ "type": "Feature", "properties": { "osm_id": "11773859482", "other_tags": "\"design\"=>\"three-level\",\"power\"=>\"tower\"" }, "bbox": [ 105.6689702, 18.6504537, 105.6689702, 18.6504537 ], "geometry": { "type": "Point", "coordinates": [ 105.6689702, 18.6504537 ] } },
{ "type": "Feature", "properties": { "osm_id": "11773859483", "other_tags": "\"design\"=>\"three-level\",\"power\"=>\"tower\"" }, "bbox": [ 105.6662706, 18.6512771, 105.6662706, 18.6512771 ], "geometry": { "type": "Point", "coordinates": [ 105.6662706, 18.6512771 ] } },
{ "type": "Feature", "properties": { "osm_id": "11773859484", "other_tags": "\"design\"=>\"three-level\",\"power\"=>\"tower\"" }, "bbox": [ 105.6651749, 18.6516773, 105.6651749, 18.6516773 ], "geometry": { "type": "Point", "coordinates": [ 105.6651749, 18.6516773 ] } },
{ "type": "Feature", "properties": { "osm_id": "11773859485", "other_tags": "\"design\"=>\"three-level\",\"power\"=>\"tower\"" }, "bbox": [ 105.6638888, 18.6521043, 105.6638888, 18.6521043 ], "geometry": { "type": "Point", "coordinates": [ 105.6638888, 18.6521043 ] } },
{ "type": "Feature", "properties": { "osm_id": "11773859486", "other_tags": "\"design\"=>\"three-level\",\"power\"=>\"tower\"" }, "bbox": [ 105.6604448, 18.6532428, 105.6604448, 18.6532428 ], "geometry": { "type": "Point", "coordinates": [ 105.6604448, 18.6532428 ] } },
{ "type": "Feature", "properties": { "osm_id": "11773859487", "other_tags": "\"design\"=>\"three-level\",\"power\"=>\"tower\"" }, "bbox": [ 105.6587081, 18.6537841, 105.6587081, 18.6537841 ], "geometry": { "type": "Point", "coordinates": [ 105.6587081, 18.6537841 ] } },
{ "type": "Feature", "properties": { "osm_id": "11773859488", "other_tags": "\"design\"=>\"three-level\",\"power\"=>\"tower\"" }, "bbox": [ 105.6560017, 18.654699, 105.6560017, 18.654699 ], "geometry": { "type": "Point", "coordinates": [ 105.6560017, 18.654699 ] } },
{ "type": "Feature", "properties": { "osm_id": "11773859489", "other_tags": "\"design\"=>\"three-level\",\"power\"=>\"tower\"" }, "bbox": [ 105.6546164, 18.6551329, 105.6546164, 18.6551329 ], "geometry": { "type": "Point", "coordinates": [ 105.6546164, 18.6551329 ] } },
{ "type": "Feature", "properties": { "osm_id": "11773859490", "other_tags": "\"design\"=>\"three-level\",\"power\"=>\"tower\"" }, "bbox": [ 105.6532994, 18.6555643, 105.6532994, 18.6555643 ], "geometry": { "type": "Point", "coordinates": [ 105.6532994, 18.6555643 ] } },
{ "type": "Feature", "properties": { "osm_id": "11773859491", "other_tags": "\"design\"=>\"three-level\",\"power\"=>\"tower\"" }, "bbox": [ 105.6520012, 18.6559887, 105.6520012, 18.6559887 ], "geometry": { "type": "Point", "coordinates": [ 105.6520012, 18.6559887 ] } },
{ "type": "Feature", "properties": { "osm_id": "11773859492", "other_tags": "\"design\"=>\"three-level\",\"power\"=>\"tower\"" }, "bbox": [ 105.649319, 18.6568832, 105.649319, 18.6568832 ], "geometry": { "type": "Point", "coordinates": [ 105.649319, 18.6568832 ] } },
{ "type": "Feature", "properties": { "osm_id": "11773859493", "other_tags": "\"design\"=>\"three-level\",\"power\"=>\"tower\"" }, "bbox": [ 105.6469989, 18.6576202, 105.6469989, 18.6576202 ], "geometry": { "type": "Point", "coordinates": [ 105.6469989, 18.6576202 ] } },
{ "type": "Feature", "properties": { "osm_id": "11773859494", "other_tags": "\"design\"=>\"three-level\",\"power\"=>\"tower\"" }, "bbox": [ 105.6463893, 18.6593946, 105.6463893, 18.6593946 ], "geometry": { "type": "Point", "coordinates": [ 105.6463893, 18.6593946 ] } },
{ "type": "Feature", "properties": { "osm_id": "11773859495", "other_tags": "\"design\"=>\"three-level\",\"power\"=>\"tower\"" }, "bbox": [ 105.6459119, 18.660683, 105.6459119, 18.660683 ], "geometry": { "type": "Point", "coordinates": [ 105.6459119, 18.660683 ] } },
{ "type": "Feature", "properties": { "osm_id": "11773859496", "other_tags": "\"design\"=>\"three-level\",\"power\"=>\"tower\"" }, "bbox": [ 105.6450771, 18.663092, 105.6450771, 18.663092 ], "geometry": { "type": "Point", "coordinates": [ 105.6450771, 18.663092 ] } },
{ "type": "Feature", "properties": { "osm_id": "11773859497", "other_tags": "\"design\"=>\"three-level\",\"power\"=>\"tower\"" }, "bbox": [ 105.6445983, 18.6644573, 105.6445983, 18.6644573 ], "geometry": { "type": "Point", "coordinates": [ 105.6445983, 18.6644573 ] } },
{ "type": "Feature", "properties": { "osm_id": "11773859498", "other_tags": "\"design\"=>\"three-level\",\"power\"=>\"tower\"" }, "bbox": [ 105.644194, 18.6656325, 105.644194, 18.6656325 ], "geometry": { "type": "Point", "coordinates": [ 105.644194, 18.6656325 ] } },
{ "type": "Feature", "properties": { "osm_id": "11773859499", "other_tags": "\"design\"=>\"three-level\",\"power\"=>\"tower\"" }, "bbox": [ 105.6440364, 18.6679437, 105.6440364, 18.6679437 ], "geometry": { "type": "Point", "coordinates": [ 105.6440364, 18.6679437 ] } },
{ "type": "Feature", "properties": { "osm_id": "11773859500", "other_tags": "\"design\"=>\"three-level\",\"power\"=>\"tower\"" }, "bbox": [ 105.6439472, 18.6691996, 105.6439472, 18.6691996 ], "geometry": { "type": "Point", "coordinates": [ 105.6439472, 18.6691996 ] } },
{ "type": "Feature", "properties": { "osm_id": "11773859501", "other_tags": "\"design\"=>\"three-level\",\"power\"=>\"tower\"" }, "bbox": [ 105.6435136, 18.6756736, 105.6435136, 18.6756736 ], "geometry": { "type": "Point", "coordinates": [ 105.6435136, 18.6756736 ] } },
{ "type": "Feature", "properties": { "osm_id": "11773859502", "other_tags": "\"design\"=>\"three-level\",\"power\"=>\"tower\"" }, "bbox": [ 105.64386, 18.6704536, 105.64386, 18.6704536 ], "geometry": { "type": "Point", "coordinates": [ 105.64386, 18.6704536 ] } },
{ "type": "Feature", "properties": { "osm_id": "11773859503", "other_tags": "\"design\"=>\"three-level\",\"power\"=>\"tower\"" }, "bbox": [ 105.6437816, 18.6717184, 105.6437816, 18.6717184 ], "geometry": { "type": "Point", "coordinates": [ 105.6437816, 18.6717184 ] } },
{ "type": "Feature", "properties": { "osm_id": "11773859504", "other_tags": "\"design\"=>\"three-level\",\"power\"=>\"tower\"" }, "bbox": [ 105.6436904, 18.6730169, 105.6436904, 18.6730169 ], "geometry": { "type": "Point", "coordinates": [ 105.6436904, 18.6730169 ] } },
{ "type": "Feature", "properties": { "osm_id": "11773859505", "other_tags": "\"design\"=>\"three-level\",\"power\"=>\"tower\"" }, "bbox": [ 105.6436019, 18.6743141, 105.6436019, 18.6743141 ], "geometry": { "type": "Point", "coordinates": [ 105.6436019, 18.6743141 ] } },
{ "type": "Feature", "properties": { "osm_id": "11773859506", "other_tags": "\"design\"=>\"three-level\",\"power\"=>\"tower\"" }, "bbox": [ 105.6434302, 18.676958, 105.6434302, 18.676958 ], "geometry": { "type": "Point", "coordinates": [ 105.6434302, 18.676958 ] } },
{ "type": "Feature", "properties": { "osm_id": "11773859507", "other_tags": "\"design\"=>\"three-level\",\"power\"=>\"tower\"" }, "bbox": [ 105.6441718, 18.6780404, 105.6441718, 18.6780404 ], "geometry": { "type": "Point", "coordinates": [ 105.6441718, 18.6780404 ] } },
{ "type": "Feature", "properties": { "osm_id": "11773859508", "other_tags": "\"design\"=>\"three-level\",\"power\"=>\"tower\"" }, "bbox": [ 105.6448491, 18.679053, 105.6448491, 18.679053 ], "geometry": { "type": "Point", "coordinates": [ 105.6448491, 18.679053 ] } },
{ "type": "Feature", "properties": { "osm_id": "11773859509", "other_tags": "\"design\"=>\"three-level\",\"power\"=>\"tower\"" }, "bbox": [ 105.645639, 18.680211, 105.645639, 18.680211 ], "geometry": { "type": "Point", "coordinates": [ 105.645639, 18.680211 ] } },
{ "type": "Feature", "properties": { "osm_id": "11773859510", "other_tags": "\"design\"=>\"three-level\",\"power\"=>\"tower\"" }, "bbox": [ 105.6463753, 18.6813042, 105.6463753, 18.6813042 ], "geometry": { "type": "Point", "coordinates": [ 105.6463753, 18.6813042 ] } },
{ "type": "Feature", "properties": { "osm_id": "11773859511", "other_tags": "\"design\"=>\"three-level\",\"power\"=>\"tower\"" }, "bbox": [ 105.6491272, 18.6853302, 105.6491272, 18.6853302 ], "geometry": { "type": "Point", "coordinates": [ 105.6491272, 18.6853302 ] } },
{ "type": "Feature", "properties": { "osm_id": "11773859512", "other_tags": "\"design\"=>\"three-level\",\"power\"=>\"tower\"" }, "bbox": [ 105.6498809, 18.6864222, 105.6498809, 18.6864222 ], "geometry": { "type": "Point", "coordinates": [ 105.6498809, 18.6864222 ] } },
{ "type": "Feature", "properties": { "osm_id": "11773859513", "other_tags": "\"design\"=>\"three-level\",\"power\"=>\"tower\"" }, "bbox": [ 105.65053, 18.6873845, 105.65053, 18.6873845 ], "geometry": { "type": "Point", "coordinates": [ 105.65053, 18.6873845 ] } },
{ "type": "Feature", "properties": { "osm_id": "11773859548", "other_tags": "\"design\"=>\"three-level\",\"power\"=>\"tower\"" }, "bbox": [ 105.6521662, 18.6898084, 105.6521662, 18.6898084 ], "geometry": { "type": "Point", "coordinates": [ 105.6521662, 18.6898084 ] } },
{ "type": "Feature", "properties": { "osm_id": "11773859549", "other_tags": "\"design\"=>\"three-level\",\"power\"=>\"tower\"" }, "bbox": [ 105.651222, 18.6884262, 105.651222, 18.6884262 ], "geometry": { "type": "Point", "coordinates": [ 105.651222, 18.6884262 ] } },
{ "type": "Feature", "properties": { "osm_id": "11877939754", "name": "V.I. Lê-nin", "other_tags": "\"artwork_type\"=>\"statue\",\"tourism\"=>\"artwork\"" }, "bbox": [ 105.6947583, 18.6767649, 105.6947583, 18.6767649 ], "geometry": { "type": "Point", "coordinates": [ 105.6947583, 18.6767649 ] } },
{ "type": "Feature", "properties": { "osm_id": "12022164613", "other_tags": "\"power\"=>\"tower\"" }, "bbox": [ 105.6750263, 18.6493535, 105.6750263, 18.6493535 ], "geometry": { "type": "Point", "coordinates": [ 105.6750263, 18.6493535 ] } },
{ "type": "Feature", "properties": { "osm_id": "12022164614", "other_tags": "\"power\"=>\"tower\"" }, "bbox": [ 105.6754524, 18.6494065, 105.6754524, 18.6494065 ], "geometry": { "type": "Point", "coordinates": [ 105.6754524, 18.6494065 ] } },
{ "type": "Feature", "properties": { "osm_id": "12022164615", "other_tags": "\"power\"=>\"tower\"" }, "bbox": [ 105.6762059, 18.6493045, 105.6762059, 18.6493045 ], "geometry": { "type": "Point", "coordinates": [ 105.6762059, 18.6493045 ] } },
{ "type": "Feature", "properties": { "osm_id": "12022164616", "other_tags": "\"power\"=>\"tower\"" }, "bbox": [ 105.6767689, 18.6490098, 105.6767689, 18.6490098 ], "geometry": { "type": "Point", "coordinates": [ 105.6767689, 18.6490098 ] } },
{ "type": "Feature", "properties": { "osm_id": "12067219942", "name": "Sở Giao thông vận tải tỉnh Nghệ An", "other_tags": "\"addr:city\"=>\"Vinh\",\"addr:housenumber\"=>\"47\",\"addr:province\"=>\"Nghệ An\",\"addr:street\"=>\"Lê Hồng Phong\",\"addr:subdistrict\"=>\"Hưng Bình\",\"government\"=>\"government\",\"landuse\"=>\"commercial\",\"office\"=>\"government\"" }, "bbox": [ 105.6819637, 18.6767811, 105.6819637, 18.6767811 ], "geometry": { "type": "Point", "coordinates": [ 105.6819637, 18.6767811 ] } },
{ "type": "Feature", "properties": { "osm_id": "12067219943", "other_tags": "\"addr:city\"=>\"Vinh\",\"addr:housenumber\"=>\"47\",\"addr:province\"=>\"Nghệ An\",\"addr:street\"=>\"Lê Hồng Phong\",\"addr:subdistrict\"=>\"Hưng Bình\"" }, "bbox": [ 105.6820202, 18.6767541, 105.6820202, 18.6767541 ], "geometry": { "type": "Point", "coordinates": [ 105.6820202, 18.6767541 ] } },
{ "type": "Feature", "properties": { "osm_id": "12067273238", "name": "UBND phường Hưng Bình", "other_tags": "\"addr:city\"=>\"TP Vinh\",\"addr:housenumber\"=>\"45\",\"addr:province\"=>\"Nghệ An\",\"addr:street\"=>\"Đường Lê Hồng Phong\",\"addr:subdistrict\"=>\"Hưng Bình\",\"government\"=>\"public_service\",\"office\"=>\"government\",\"opening_hours\"=>\"Mo-Su 07:00-17:00\",\"website\"=>\"https://hungbinh.vinh.nghean.gov.vn/\"" }, "bbox": [ 105.6816064, 18.6767356, 105.6816064, 18.6767356 ], "geometry": { "type": "Point", "coordinates": [ 105.6816064, 18.6767356 ] } },
{ "type": "Feature", "properties": { "osm_id": "12151188609", "other_tags": "\"noexit\"=>\"yes\"" }, "bbox": [ 105.6663318, 18.6778376, 105.6663318, 18.6778376 ], "geometry": { "type": "Point", "coordinates": [ 105.6663318, 18.6778376 ] } },
{ "type": "Feature", "properties": { "osm_id": "12369404580", "name": "Khach San Viet Uc", "other_tags": "\"tourism\"=>\"hotel\"" }, "bbox": [ 105.6976135, 18.6746518, 105.6976135, 18.6746518 ], "geometry": { "type": "Point", "coordinates": [ 105.6976135, 18.6746518 ] } },
{ "type": "Feature", "properties": { "osm_id": "12369437995", "name": "Dai Hue Palace", "other_tags": "\"tourism\"=>\"hotel\"" }, "bbox": [ 105.6949305, 18.6760974, 105.6949305, 18.6760974 ], "geometry": { "type": "Point", "coordinates": [ 105.6949305, 18.6760974 ] } },
{ "type": "Feature", "properties": { "osm_id": "12387921201", "name": "PHU KIEN 88, place to buy sim card", "other_tags": "\"addr:street\"=>\"Đường Quang Trung\",\"internet_access\"=>\"wlan\",\"name:en\"=>\"SIM card\",\"shop\"=>\"mobile_phone\"" }, "bbox": [ 105.6749059, 18.6659991, 105.6749059, 18.6659991 ], "geometry": { "type": "Point", "coordinates": [ 105.6749059, 18.6659991 ] } },
{ "type": "Feature", "properties": { "osm_id": "12578281101", "other_tags": "\"amenity\"=>\"fuel\"" }, "bbox": [ 105.6768596, 18.6763071, 105.6768596, 18.6763071 ], "geometry": { "type": "Point", "coordinates": [ 105.6768596, 18.6763071 ] } },
{ "type": "Feature", "properties": { "osm_id": "12578743801", "other_tags": "\"amenity\"=>\"toilets\"" }, "bbox": [ 105.6892987, 18.6690052, 105.6892987, 18.6690052 ], "geometry": { "type": "Point", "coordinates": [ 105.6892987, 18.6690052 ] } },
{ "type": "Feature", "properties": { "osm_id": "12622919711", "name": "chung cư trung đức, 2 lê lợi, phường hưng bình, thành phố vinh, tỉnh nghệ an,", "other_tags": "\"addr:district\"=>\"Thành phố Vinh\",\"addr:province\"=>\"Tỉnh Nghệ An\",\"addr:street\"=>\"chung cư trung đức, 2 lê lợi, phường hưng bình, thành phố vinh, tỉnh nghệ an,\",\"addr:subdistrict\"=>\"Phường Hưng Bình\"" }, "bbox": [ 105.6745791, 18.6794585, 105.6745791, 18.6794585 ], "geometry": { "type": "Point", "coordinates": [ 105.6745791, 18.6794585 ] } },
{ "type": "Feature", "properties": { "osm_id": "12624764342", "name": "số 5 Đặng thái thân, phường cửa nam, thành phố vinh, tỉnh nghệ an,", "other_tags": "\"addr:district\"=>\"Thành phố Vinh\",\"addr:province\"=>\"Tỉnh Nghệ An\",\"addr:street\"=>\"số 5 Đặng thái thân, phường cửa nam, thành phố vinh, tỉnh nghệ an,\",\"addr:subdistrict\"=>\"Phường Cửa Nam\"" }, "bbox": [ 105.6647352, 18.6672785, 105.6647352, 18.6672785 ], "geometry": { "type": "Point", "coordinates": [ 105.6647352, 18.6672785 ] } },
{ "type": "Feature", "properties": { "osm_id": "12695954599", "other_tags": "\"noexit\"=>\"yes\"" }, "bbox": [ 105.6661635, 18.6757177, 105.6661635, 18.6757177 ], "geometry": { "type": "Point", "coordinates": [ 105.6661635, 18.6757177 ] } },
{ "type": "Feature", "properties": { "osm_id": "12695954600", "other_tags": "\"noexit\"=>\"yes\"" }, "bbox": [ 105.6635194, 18.6754338, 105.6635194, 18.6754338 ], "geometry": { "type": "Point", "coordinates": [ 105.6635194, 18.6754338 ] } },
{ "type": "Feature", "properties": { "osm_id": "12696002511", "other_tags": "\"noexit\"=>\"yes\"" }, "bbox": [ 105.6747546, 18.6754163, 105.6747546, 18.6754163 ], "geometry": { "type": "Point", "coordinates": [ 105.6747546, 18.6754163 ] } },
{ "type": "Feature", "properties": { "osm_id": "12696002513", "barrier": "yes" }, "bbox": [ 105.6752737, 18.6754882, 105.6752737, 18.6754882 ], "geometry": { "type": "Point", "coordinates": [ 105.6752737, 18.6754882 ] } },
{ "type": "Feature", "properties": { "osm_id": "12696002517", "other_tags": "\"noexit\"=>\"yes\"" }, "bbox": [ 105.6751838, 18.675571, 105.6751838, 18.675571 ], "geometry": { "type": "Point", "coordinates": [ 105.6751838, 18.675571 ] } },
{ "type": "Feature", "properties": { "osm_id": "12696191265", "other_tags": "\"access\"=>\"no\",\"noexit\"=>\"yes\"" }, "bbox": [ 105.6949833, 18.6586227, 105.6949833, 18.6586227 ], "geometry": { "type": "Point", "coordinates": [ 105.6949833, 18.6586227 ] } },
{ "type": "Feature", "properties": { "osm_id": "12696191266", "barrier": "gate", "other_tags": "\"access\"=>\"no\"" }, "bbox": [ 105.695401, 18.6581454, 105.695401, 18.6581454 ], "geometry": { "type": "Point", "coordinates": [ 105.695401, 18.6581454 ] } },
{ "type": "Feature", "properties": { "osm_id": "12698078869", "barrier": "gate", "other_tags": "\"access\"=>\"permissive\"" }, "bbox": [ 105.6753079, 18.6815088, 105.6753079, 18.6815088 ], "geometry": { "type": "Point", "coordinates": [ 105.6753079, 18.6815088 ] } },
{ "type": "Feature", "properties": { "osm_id": "12698078870", "barrier": "gate", "other_tags": "\"access\"=>\"permissive\"" }, "bbox": [ 105.675737, 18.6814969, 105.675737, 18.6814969 ], "geometry": { "type": "Point", "coordinates": [ 105.675737, 18.6814969 ] } },
{ "type": "Feature", "properties": { "osm_id": "12715434687", "barrier": "gate", "other_tags": "\"access\"=>\"permissive\"" }, "bbox": [ 105.6953943, 18.658739, 105.6953943, 18.658739 ], "geometry": { "type": "Point", "coordinates": [ 105.6953943, 18.658739 ] } },
{ "type": "Feature", "properties": { "osm_id": "12717919932", "barrier": "gate", "other_tags": "\"access\"=>\"permissive\"" }, "bbox": [ 105.6896331, 18.6714637, 105.6896331, 18.6714637 ], "geometry": { "type": "Point", "coordinates": [ 105.6896331, 18.6714637 ] } },
{ "type": "Feature", "properties": { "osm_id": "12717919933", "barrier": "gate", "other_tags": "\"access\"=>\"permissive\"" }, "bbox": [ 105.6911705, 18.6691134, 105.6911705, 18.6691134 ], "geometry": { "type": "Point", "coordinates": [ 105.6911705, 18.6691134 ] } },
{ "type": "Feature", "properties": { "osm_id": "12717957671", "other_tags": "\"noexit\"=>\"yes\"" }, "bbox": [ 105.6687565, 18.6572178, 105.6687565, 18.6572178 ], "geometry": { "type": "Point", "coordinates": [ 105.6687565, 18.6572178 ] } },
{ "type": "Feature", "properties": { "osm_id": "12717957672", "other_tags": "\"noexit\"=>\"yes\"" }, "bbox": [ 105.6689242, 18.657228, 105.6689242, 18.657228 ], "geometry": { "type": "Point", "coordinates": [ 105.6689242, 18.657228 ] } },
{ "type": "Feature", "properties": { "osm_id": "12717957673", "barrier": "gate", "other_tags": "\"access\"=>\"no\"" }, "bbox": [ 105.6746865, 18.6593299, 105.6746865, 18.6593299 ], "geometry": { "type": "Point", "coordinates": [ 105.6746865, 18.6593299 ] } },
{ "type": "Feature", "properties": { "osm_id": "12780119273", "name": "Công Ty Dệt May Hoàng Thị Loan Đường Huỳnh Thúc Kháng", "other_tags": "\"addr:district\"=>\"Thành phố Vinh\",\"addr:province\"=>\"Tỉnh Nghệ An\",\"addr:street\"=>\"Công Ty Dệt May Hoàng Thị Loan Đường Huỳnh Thúc Kháng,\",\"addr:subdistrict\"=>\"Phường Bến Thủy\"" }, "bbox": [ 105.7023871, 18.6585851, 105.7023871, 18.6585851 ], "geometry": { "type": "Point", "coordinates": [ 105.7023871, 18.6585851 ] } },
{ "type": "Feature", "properties": { "osm_id": "12816193042", "name": "Trường Trung Học Phổ Thông Huỳnh Thúc Kháng Đường Hồ Sỹ Dương", "other_tags": "\"addr:district\"=>\"Thành phố Vinh\",\"addr:province\"=>\"Tỉnh Nghệ An\",\"addr:street\"=>\"Trường Trung Học Phổ Thông Huỳnh Thúc Kháng Đường Hồ Sỹ Dương,\",\"addr:subdistrict\"=>\"Phường Hưng Bình\"" }, "bbox": [ 105.6825862, 18.6759139, 105.6825862, 18.6759139 ], "geometry": { "type": "Point", "coordinates": [ 105.6825862, 18.6759139 ] } },
{ "type": "Feature", "properties": { "osm_id": "12816239873", "name": "Công Viên Tam Giác Đường Nguyễn Thị Minh Khai", "other_tags": "\"addr:district\"=>\"Thành phố Vinh\",\"addr:province\"=>\"Tỉnh Nghệ An\",\"addr:street\"=>\"Công Viên Tam Giác Đường Nguyễn Thị Minh Khai,\",\"addr:subdistrict\"=>\"Phường Quang Trung\"" }, "bbox": [ 105.6755795, 18.67707, 105.6755795, 18.67707 ], "geometry": { "type": "Point", "coordinates": [ 105.6755795, 18.67707 ] } },
{ "type": "Feature", "properties": { "osm_id": "12818445427", "name": "Trường Tiểu Học Bến Thủy Đường Phong Định Cảng", "other_tags": "\"addr:district\"=>\"Thành phố Vinh\",\"addr:province\"=>\"Tỉnh Nghệ An\",\"addr:street\"=>\"Trường Tiểu Học Bến Thủy Đường Phong Định Cảng,\",\"addr:subdistrict\"=>\"Phường Bến Thủy\"" }, "bbox": [ 105.702632, 18.6638047, 105.702632, 18.6638047 ], "geometry": { "type": "Point", "coordinates": [ 105.702632, 18.6638047 ] } },
{ "type": "Feature", "properties": { "osm_id": "12829537084", "name": "Ủy Ban Nhân Dân", "other_tags": "\"addr:district\"=>\"Thành phố Vinh\",\"addr:province\"=>\"Tỉnh Nghệ An\",\"addr:street\"=>\"Ủy Ban Nhân Dân\",\"addr:subdistrict\"=>\"Phường Vinh Tân\"" }, "bbox": [ 105.6787402, 18.6606544, 105.6787402, 18.6606544 ], "geometry": { "type": "Point", "coordinates": [ 105.6787402, 18.6606544 ] } },
{ "type": "Feature", "properties": { "osm_id": "12829721626", "name": "Trường Tiểu Học Hưng Bình Đường Nguyễn Đức Cảnh", "other_tags": "\"addr:district\"=>\"Thành phố Vinh\",\"addr:province\"=>\"Tỉnh Nghệ An\",\"addr:street\"=>\"Trường Tiểu Học Hưng Bình Đường Nguyễn Đức Cảnh,\",\"addr:subdistrict\"=>\"Phường Hưng Bình\"" }, "bbox": [ 105.681894, 18.6806985, 105.681894, 18.6806985 ], "geometry": { "type": "Point", "coordinates": [ 105.681894, 18.6806985 ] } },
{ "type": "Feature", "properties": { "osm_id": "12832738408", "name": "vietinbank chợ vinh số 61 đường lê hồng sơn, phường hồng sơn, thành phố vinh, tỉnh nghệ an,", "other_tags": "\"addr:district\"=>\"Thành phố Vinh\",\"addr:province\"=>\"Tỉnh Nghệ An\",\"addr:street\"=>\"vietinbank chợ vinh 61 đường lê hồng sơn, phường hồng sơn, tỉnh nghệ an,\",\"addr:subdistrict\"=>\"Phường Hồng Sơn\"" }, "bbox": [ 105.6758472, 18.6641432, 105.6758472, 18.6641432 ], "geometry": { "type": "Point", "coordinates": [ 105.6758472, 18.6641432 ] } },
{ "type": "Feature", "properties": { "osm_id": "12874224747", "barrier": "wicket_gate", "other_tags": "\"access\"=>\"yes\"" }, "bbox": [ 105.6890724, 18.6677363, 105.6890724, 18.6677363 ], "geometry": { "type": "Point", "coordinates": [ 105.6890724, 18.6677363 ] } }
]
}
